,_id,l_ID,r_ID,l_name,l_city,l_zipcode,l_review_count,l_latitude,l_longitude,l_rating,l_address,l_zomato_id,l_yelp_id,r_name,r_city,r_zipcode,r_review_count,r_latitude,r_longitude,r_rating,r_address,r_zomato_id,r_yelp_id,predicted
480,480,a28523,b2373,The Cracked Egg,Henderson,89074,396,36.02840264,-115.0845215,3.5,1000 N Green Valley Pkwy$*$ Ste 480,0,At2bqa8emnEr5WNIosi0ow,The Cracked Egg,Las Vegas,89074,318,36.027749,-115.085723,4.2,1000 N Green Valley Parkway #480$*$ Henderson$*$ NV 89074,16981241,0,1
1204,1204,a120029,b571,Sauce Pizza & Wine,Phoenix,85085,159,33.7151321,-112.1130676,3.5,2470 W Happy Valley Rd,0,8J55FMsOXei4Xh1jHSpElw,Sauce Pizza & Wine,Phoenix,85085,215,33.713052,-112.111734,4,2470 W Happy Valley Rd$*$ Phoenix$*$ AZ 85085,17030169,0,1
1327,1327,a88298,b362,Firebirds Wood Fired Grill,Charlotte,28216,110,35.352549,-80.851181,4,6801 Northlake Mall Dr,0,qVVjbYR0LIfJuIIzgPMTuw,Firebirds Wood Fired Grill,Charlotte,28216,423,35.349937,-80.850339,4.2,6801 Northlake Mall Drive$*$ Charlotte$*$ NC 28216,17147235,0,1
1464,1464,a46401,b425,Bonfyre American Grille,Madison,53713,179,43.03473537,-89.42256114,3.5,2601 W Beltline Hwy,0,2YlUn3s132hNq5ueGeIiJg,Bonfyre American Grille,Madison,53713,575,43.034786,-89.42118,4.2,2601 West Beltline Highway$*$ Madison$*$ WI 53713,17503464,0,1
1937,1937,a81183,b3523,Presti's Bakery,Cleveland,44106,235,41.5088666,-81.598344,4,12101 Mayfield Rd,0,orrrhqRRUORIzUSxWTveKg,Presti's Bakery & Caf,Cleveland,44106,544,41.508837,-81.598206,4.4,12101 Mayfield Rd$*$ Cleveland$*$ OH 44106,16962390,0,1
2059,2059,a117289,b3515,L'Albatros,Cleveland,44106,468,41.51174396,-81.60639534,4.5,11401 Bellflower Rd,0,SzcCJJmreMlWCsNjupdVAA,L'Albatros,Cleveland,44106,884,41.5115,-81.605604,4.5,11401 Bellflower Rd$*$ Cleveland$*$ OH 44106,16964270,0,1
2377,2377,a53240,b2349,KoMex Fusion,Las Vegas,89107,1128,36.179939,-115.206417,4.5,633 N Decatur Blvd$*$ Ste H,0,zdE82PiD6wquvjYLyhOJNA,KoMex Fusion,Las Vegas,89107,195,36.179453,-115.20635,4.3,633 N Decatur Blvd Ste H$*$ Las Vegas$*$ NV 89107,16982239,0,1
2936,2936,a68380,b396,Flying Saucer Draught Emporium,Charlotte,28262,196,35.31669443,-80.7405518,4,9605 N Tryon St$*$ Ste A,0,gOOdzjVxP7Z7bGjsstRjcw,The Flying Saucer Draught Emporium,Charlotte,28262,446,35.316954,-80.738968,4.1,Terraces At University Place$*$ 9605 N Tryon Street Suite A$*$ Charlotte$*$ NC 28262,17147264,0,1
3277,3277,a1510,b378,Tony's Pizza,Huntersville,28078,81,35.357556,-80.868144,4,9548 Mt Holly Huntersville Rd,0,fOKeVUHC7nb6c8G5sILdHQ,Tony's Pizza,Charlotte,28078,237,35.357386,-80.868146,4.2,9548 Mount Holly-Huntersville Road$*$ Charlotte$*$ NC 28078,17148387,0,1
4620,4620,a58949,b376,Bagel Bin,Huntersville,28078,57,35.442525,-80.861123,3.5,9815 Sam Furr Rd$*$ Ste I,0,VVdbPZs0M6d_X5XdgyAhig,Bagel Bin,Charlotte,28078,229,35.442068,-80.861476,4.2,Northcross$*$ 9815 Sam Furr Road Suite I$*$ NC 28078,17146715,0,1
5187,5187,a92700,b326,La Unica Mexican Restaurant,Huntersville,28078,90,35.43660607,-80.8706376,3.5,16203 Northcross Dr,0,jR_p2I8h6w5lpf6GWk9Dzg,La Unica Mexican Restaurant,Charlotte,28078,471,35.436652,-80.870662,4.4,16203 Northcross Drive$*$ Huntersville$*$ Charlotte$*$ NC 28078,17149565,0,1
6953,6953,a57911,b521,Mike and Ronda's The Place,Glendale,85308,406,33.63867334,-112.1709838,4,5171 W Bell Rd,0,fOnpoMXToa5Qiyg95E6ENg,Mike & Ronda's The Place,Phoenix,85308,357,33.638777,-112.170874,4.3,5171 West Bell Road$*$ Deer Valley$*$ Phoenix$*$ AZ 85308,17027928,0,1
7186,7186,a75661,b527,Yen Sushi & Sake Bar,Phoenix,85308,380,33.640832,-112.151282,4,17037 N 43rd Ave,0,LtNgP4FqXp5nMFOHErK8cw,Yen Sushi & Sake Bar,Phoenix,85308,238,33.639965,-112.15165,4.3,17037 North 43rd Avenue #A3$*$ Deer Valley$*$ Phoenix$*$ AZ 85308,17030919,0,1
8704,8704,a22465,b334,Firebirds Wood Fired Grill,Charlotte,28277,226,35.0620547,-80.815844,4,7716 Rea Rd,0,npWIa3dIPEV1MTaZNq6AUA,Firebirds Wood Fired Grill,Charlotte,28277,1271,35.0620547,-80.815844,4.3,7716 Rea Road$*$ Charlotte$*$ NC 28277,17147236,0,1
8940,8940,a31300,b366,Cajun Yard Dog,Charlotte,28277,194,35.0971238,-80.78056097,4,8036 Providence Rd$*$ Ste 900,0,KbLI0QELlAwbfDUVwo43DQ,Cajun Yard Dog,Charlotte,28277,471,35.098556,-80.778609,4.2,8036 Providence Road$*$ Suite 900$*$ Charlotte$*$ NC 28277,17146864,0,1
9379,9379,a41637,b374,Zeitouni Grill,Charlotte,28277,178,35.06862,-80.842617,4,3419 Toringdon Way$*$ Ste A-124,0,ExtP8z3SVyut_RICc9i_DA,Zeitouni,Charlotte,28277,274,35.068638,-80.842915,4.2,3419 Toringdon Way Suite 124$*$ Charlotte$*$ NC 28277,17150451,0,1
11357,11357,a110655,b356,131 Main,Charlotte,28277,217,35.0340918,-80.8089294,4,9886 Rea Rd,0,110iMPMPEEjFlf8HKVq84g,131 Main,Charlotte,28277,594,35.034243,-80.805375,4.2,9886 Rea Road$*$ Charlotte$*$ NC 28277,17148614,0,1
11882,11882,a120276,b390,Ilios Noche,Charlotte,28277,195,35.05321461,-80.77040053,4,11508 Providence Rd,0,c-l4nDPZcEwapEiV-Xf08w,Ilios Noche,Charlotte,28277,695,35.054023,-80.769803,4.1,11508 Providence Road$*$ Suite I$*$ Charlotte$*$ NC 28277,17147444,0,1
12473,12473,a6428,b503,Cibo,Phoenix,85003,1457,33.45496,-112.079908,4.5,603 N 5th Ave,0,9a3DrZvpYxVs3k_qwlCNSw,Cibo,Phoenix,85003,1062,33.454891,-112.080035,4.7,603 North 5th Avenue$*$ Downtown$*$ Phoenix$*$ AZ 85003,17025909,0,1
13593,13593,a4718,b392,Sullivan's Steakhouse,Charlotte,28203,185,35.2102729,-80.8600584,4,1928 South Blvd$*$ Ste 200,0,UByM7N0mF-ylIGUuIWHCtA,Sullivan's Steakhouse,Charlotte,28203,486,35.210526,-80.859246,4.1,1928 South Boulevard$*$ Charlotte$*$ NC 28203,17148288,0,1
13688,13688,a6316,b312,Price's Chicken Coop,Charlotte,28203,302,35.2143631,-80.8575705,4,1614 Camden Rd,0,_5UAFrD3EDgJO1aZgRxH7w,Price's Chicken Coop,Charlotte,28203,1093,35.214563,-80.857329,4.5,1614 Camden Road$*$ Charlotte$*$ NC 28203,17147994,0,1
15034,15034,a30335,b397,Thai Taste,Charlotte,28203,220,35.210017,-80.855878,3.5,324 East Blvd,0,aIJqDWUt10iS45zYCr0KcQ,Thai Taste,Charlotte,28203,459,35.210508,-80.856277,4.1,324 East Boulevard$*$ Dilworth$*$ Charlotte$*$ NC 28203,17148369,0,1
15969,15969,a44645,b332,Ru San's,Charlotte,28203,381,35.19773768,-80.85271905,3.5,2440 Park Rd,0,osSwv6CJy5hDKQdOKeyTow,Ru Sans,Charlotte,28203,1182,35.197861,-80.851802,4.3,2440 Park Road$*$ Charlotte$*$ NC 28203,17148099,0,1
16636,16636,a63958,b307,Bad Daddy's Burger Bar,Charlotte,28203,386,35.199097,-80.840805,4,1626 East Blvd,0,yWUBX9Pe6pzh1PjVj04UmQ,Bad Daddy's,Charlotte,28203,1363,35.199007,-80.8408317,4.6,1626 East Boulevard$*$ Charlotte$*$ NC 28203,17148552,0,1
17310,17310,a84256,b333,Mac's Speed Shop,Charlotte,28203,68,35.2029595,-80.8643709,4,2511 S Blvd,0,FSB3Jb4t11KkMyEi_7-s6Q,Mac's Speed Shop,Charlotte,28203,1673,35.202942,-80.864358,4.3,2511 South Boulevard$*$ Charlotte$*$ NC 28203,17147666,0,1
17941,17941,a98996,b336,300 East,Charlotte,28203,439,35.2105533,-80.8566726,4,300 East Blvd,0,D2ojX9bvE0_-aIj9BhdZZA,300 East,Charlotte,28203,617,35.210862,-80.856527,4.3,300 East Boulevard$*$ Charlotte$*$ NC 28203,17146635,0,1
18005,18005,a101638,b400,Luna's Living Kitchen,Charlotte,28203,286,35.20872205,-80.86143192,4.5,2102 S Blvd$*$ Ste 150,0,TLWZK8NIpn4zI4_yut-q6Q,Luna's Living Kitchen,Charlotte,28203,244,35.208548,-80.86153,4.1,2102 South Boulevard$*$ Suite 300$*$ Charlotte$*$ NC 28203,17150072,0,1
18115,18115,a104233,b400,Luna's Living Kitchen,Charlotte,28203,214,35.20902658,-80.86115551,4.5,2000 S Blvd$*$ Ste 300,0,R1jJQi2yR44D_2ileqr8kA,Luna's Living Kitchen,Charlotte,28203,244,35.208548,-80.86153,4.1,2102 South Boulevard$*$ Suite 300$*$ Charlotte$*$ NC 28203,17150072,0,1
18923,18923,a7311,b2332,Bonito Michoacan,Las Vegas,89103,481,36.1221978,-115.2089027,4,3715 S Decatur Blvd,0,lOQPeguczAueJnLmDUTfGg,Bonito Michoacan,Las Vegas,89103,255,36.122262,-115.208369,4.4,3715 S Decatur Boulevard$*$ Las Vegas$*$ NV 89103,16977626,0,1
19169,19169,a18748,b2398,Carnival World & Seafood Buffet,Las Vegas,89103,255,36.11781274,-115.1874098,2.5,Rio All-Suite Hotel & Casino$*$ 3700 W Flamingo Road,0,KhWl4Mwhm_Oqq0zIIz-0wQ,Carnival World Buffet,Las Vegas,89103,382,36.1157,-115.187,4.1,3700 W Flamingo Rd$*$ Las Vegas$*$ NV 89103,16977828,0,1
19576,19576,a24641,b2362,Nora's Italian Cuisine,Las Vegas,89103,973,36.1148522,-115.2203694,4,5780 W Flamingo Rd,0,pHJu8tj3sI8eC5aIHLFEfQ,Nora's Cuisine,Las Vegas,89103,548,36.114777,-115.223348,4.2,6020 W Flamingo Road$*$ Las Vegas$*$ NV 89103,16979551,0,1
19693,19693,a27648,b2398,Carnival World Buffet,Las Vegas,89103,1374,36.11788994,-115.1893946,3.5,Rio All-Suite Hotel & Casino$*$ 3700 W Flamingo Road,0,FLMxWQO-ckCQmGZhU9OQgw,Carnival World Buffet,Las Vegas,89103,382,36.1157,-115.187,4.1,3700 W Flamingo Rd$*$ Las Vegas$*$ NV 89103,16977828,0,1
20022,20022,a41410,b2303,In-N-Out Burger,Las Vegas,89103,853,36.1013195,-115.1821862,4,4888 Dean Martin Dr,0,nVAJZ6BJ9PPlxDXn976R6A,In-N-Out Burger,Las Vegas,89103,1071,36.101009,-115.182811,4.8,4888 Dean Martin Drive$*$ Las Vegas$*$ NV 89103,16978756,0,1
23660,23660,a133408,b317,Taqueria La Unica,Indian Trail,28079,180,35.0678584,-80.6775771,4.5,4305 Old Monroe Rd,0,57aBx6Mo_VRk_kMA8J5Efg,Taqueria la Unica,Charlotte,28079,345,35.067698,-80.678044,4.5,4305 Old Monroe Road$*$ NC 28079,17149730,0,1
23845,23845,a1164,b1527,BreadWorks Bakery,Pittsburgh,15212,19,40.46194,-80.01929,4.5,2110 Brighton Rd,0,Uh6EhbFKgQlhVpfvnqsfHA,Breadworks,Pittsburgh,15212,478,40.461944,-80.019057,4.5,2110 Brighton Rd$*$ Pittsburgh$*$ PA 15212,17036048,0,1
23888,23888,a7608,b1559,Legends of The North Shore,Pittsburgh,15212,101,40.4566092,-80.0015054,4,500 E N Ave,0,QeShrs6cUNBjJoTCkJiB0g,Legends of the North Shore Restaurant,Pittsburgh,15212,629,40.4565599,-80.0015124,4.3,500 E North Avenue$*$ Pittsburgh$*$ PA 15212,17036766,0,1
24156,24156,a80159,b1518,Max's Allegheny Tavern,Pittsburgh,15212,176,40.4551576,-79.999728,4,537 Suismon St,0,_-W_hRQRDEqVdO1WKGa-DQ,Max's Allegheny Tavern,Pittsburgh,15212,983,40.455089,-80.000483,4.5,537 Suismon St$*$ Pittsburgh$*$ PA 15212,17036875,0,1
24860,24860,a23917,b592,Spinato's Pizzeria,Phoenix,85014,221,33.51700641,-112.0646513,4,5509 N 7th St,0,_mg5bYknpZgaWSfjQVmrJQ,Spinato's Pizza,Phoenix,85014,234,33.517438,-112.063844,4,5509 North 7th Street$*$ Midtown$*$ Phoenix$*$ AZ 85014,17029287,0,1
25434,25434,a26530,b555,Sierra Bonita Grill,Phoenix,85014,304,33.537786,-112.064608,4,6933 N 7th St,0,J5ebC7fKqrSF8KuS8d6hgw,Sierra Bonita Grill,Phoenix,85014,342,33.537881,-112.064903,4.1,6933 North 7th Street$*$ Midtown$*$ Phoenix$*$ AZ 85014,17029205,0,1
26254,26254,a38147,b553,Cherryblossom Noodle Cafe,Phoenix,85014,817,33.50980204,-112.0610866,4,914 E Camelback Rd,0,fT6Uwl6abRQfiNgxre_qbg,Cherryblossom Noodle Cafe,Phoenix,85014,316,33.509437,-112.061628,4.1,914 East Camelback Road$*$ Phoenix$*$ AZ 85014,17025780,0,1
26351,26351,a38808,b554,Oregano's Pizza Bistro,Phoenix,85014,417,33.5094801,-112.0601964,4,1008 E Camelback Rd,0,dUffgo9Lh_Vk9TLuFR5ywg,Oregano's Pizza Bistro,Phoenix,85014,348,33.509437,-112.060141,4.1,1008 E Camelback Rd$*$ Phoenix$*$ AZ 85014,17028233,0,1
26617,26617,a81422,b560,Luci's Healthy Marketplace,Phoenix,85014,425,33.5239465,-112.0478991,4,1590 E Bethany Home Rd,0,fjapWp89YVCeKvW51KUDQw,Luci's Healthy Marketplace & Coffee Bar,Phoenix,85014,246,33.523891,-112.047873,4.1,1590 East Bethany Home Road$*$ Midtown$*$ Phoenix$*$ AZ 85014,17030810,0,1
27051,27051,a119084,b535,The Fry Bread House,Phoenix,85014,128,33.49442904,-112.0606337,4,1003 E Indian School Rd,0,6KJoamvn2_o1UpBaOwy2IQ,The Fry Bread House,Phoenix,85014,337,33.494402,-112.060828,4.2,1003 East Indian School Road$*$ Midtown$*$ Phoenix$*$ AZ 85014,17026650,0,1
27261,27261,a79964,b533,Bobby Q,Phoenix,85051,1689,33.5610848,-112.115747,4.5,8501 N 27th Ave,0,VyVIneSU7XAWgMBllI6LnQ,Bobby-Q,Phoenix,85051,370,33.560598,-112.11678,4.2,8501 North 27th Avenue$*$ Phoenix$*$ AZ 85051,17025437,0,1
28687,28687,a63846,b2310,Archi's Thai Cafe,Las Vegas,89117,410,36.14715261,-115.2999764,4,9350 W Sahara Ave,0,qsJkjQoM3Hdg6Gtqp2S9_w,Archi's Thai Caf,Las Vegas,89117,424,36.144634,-115.298864,4.6,9350 West Sahara Avenue$*$ Summerlin South$*$ Las Vegas$*$ NV 89117,16981405,0,1
28967,28967,a72533,b2352,Sushi Fever,Las Vegas,89117,299,36.14319843,-115.2644564,4,7985 W Sahara Ave$*$ Ste 105,0,GkRF8rSvh9cOQuuPeDh9bg,Sushi Fever,Las Vegas,89117,279,36.143547,-115.265178,4.3,7985 W Sahara Ave Ste 105$*$ Las Vegas$*$ NV 89117,16980483,0,1
30774,30774,a142845,b2379,Mastrioni's,Las Vegas,89117,246,36.1291479,-115.3145433,4,3330 S Hualapai Way$*$ Ste 160,0,HaPwC4nxs6RPfe1pAQkQ4A,Mastrioni's,Las Vegas,89117,319,36.129276,-115.31503,4.2,3330 S Hualapai Way$*$ Las Vegas$*$ NV 89117,16977733,0,1
31835,31835,a85480,b2319,Le Thai,Las Vegas,89101,1117,36.16880181,-115.1398801,4,523 Fremont St,0,#NAME?,Le Thai,Las Vegas,89101,278,36.1687428,-115.1398662,4.5,523 Fremont St$*$ Las Vegas$*$ NV 89101,16982500,0,1
31844,31844,a85964,b2369,Carson Kitchen,Las Vegas,89101,1225,36.16787832,-115.1406405,4.5,124 S 6th St$*$ Ste 100,0,2iTsRqUsPGRH1li1WVRvKQ,Carson Kitchen,Las Vegas,89101,118,36.167937,-115.140467,4.2,124 S 6th St$*$ Las Vegas$*$ NV 89101,16983968,0,1
32658,32658,a3171,b3591,Mashiso Asian Grille,North Olmsted,44070,63,41.4194734,-81.8979624,4,24954 Brookpark Rd,0,yBbqFPuwFiaom435KOY4cg,Mashiso Asian Grille,Cleveland,44070,210,41.419094,-81.898564,4.2,24954 Brookpark Rd$*$ North Olmsted$*$ OH 44070,16964914,0,1
32789,32789,a18919,b3502,Fat Heads Brewery and Saloon,North Olmsted,44070,422,41.4264256,-81.8941989,4,24581 Lorain Rd,0,CuT2Xh3vAYvRfxUWlUo6oA,Fat Heads Brewery & Saloon,Cleveland,44070,1355,41.426678,-81.894256,4.9,24581 Lorain Rd$*$ North Olmsted$*$ OH 44070,16964400,0,1
33537,33537,a62454,b3565,Nuevo Acapulco,North Olmsted,44070,112,41.42733041,-81.89275423,3.5,24409 Lorain Rd,0,7D-ATDP9Ezr1ZehszsotOQ,Nuevo Acapulco,Cleveland,44070,541,41.426932,-81.892562,4.2,24409 Lorain Rd$*$ North Olmsted$*$ OH 44070,16962017,0,1
34299,34299,a114395,b3532,Charm Thai Restaurant,Parma,44134,114,41.3637374,-81.6853549,4,7426 Broadview Rd,0,Mgvs9XPJpR2Vo5D4Tb59sA,Charm Thai,Cleveland,44134,401,41.364533,-81.684778,4.4,7426 Broadview Rd$*$ Parma$*$ OH 44134,16963504,0,1
34304,34304,a115765,b3577,Kumo Japanese Seafood Buffet,Parma,44134,115,41.4052183,-81.6917077,3.5,1975 Snow Rd,0,pfyH89xsKRasjCp1j9z3vw,Kumo Japanese Seafood Buffet,Cleveland,44134,352,41.40502,-81.694859,4.2,1975 Snow Road$*$ Parma$*$ OH 44134,16964839,0,1
34423,34423,a8132,b2351,In-N-Out Burger,Las Vegas,89139,191,36.04062762,-115.1912562,4,3882 Blue Diamond Rd,0,Kbbm6Vd5UdbP10dwjBghRw,In-N-Out Burger,Las Vegas,89139,212,36.038179,-115.195721,4.3,3882 Blue Diamond Road$*$ Las Vegas$*$ NV 89139,16981248,0,1
35302,35302,a135819,b2368,Oyshi Sushi,Las Vegas,89139,969,36.047306,-115.244158,3.5,7775 S Rainbow Blvd$*$ Ste 145,0,Gaq3S9lmjXVcuDCZ8ulppw,Oyshi Sushi,Las Vegas,89139,483,36.047124,-115.243435,4.2,7775 S Rainbow Blvd Ste 145$*$ Las Vegas$*$ NV 89139,16981221,0,1
35382,35382,a6356,b512,Pappadeaux Seafood Kitchen,Phoenix,85029,906,33.587766,-112.115899,4,11051 N Black Canyon Hwy,0,whAwdYVty-jSNRhrYT2zHA,Pappadeaux Seafood Kitchen,Phoenix,85029,533,33.589345,-112.116384,4.4,11501 N Black Canyon Freeway$*$ Sunnyslope/North Mountain$*$ Phoenix$*$ AZ 85029,17028356,0,1
37813,37813,a41033,b2353,Slice of Vegas,Las Vegas,89119,430,36.09128,-115.174098,3.5,Mandalay Bay$*$ 3930 Las Vegas Blvd S$*$Ste 120,0,lKq4Qsz13FDcAVgp49uukQ,Slice of Vegas,Las Vegas,89119,210,36.092089,-115.172992,4.3,3930 Las Vegas Boulevard S$*$ Las Vegas$*$ NV 89119,16982662,0,1
39162,39162,a59131,b2328,Texas de Brazil,Las Vegas,89119,319,36.0701338,-115.1753307,4.5,6533 Las Vegas Blvd S,0,h7s4MRVvB726jWHCHiQ9kw,Texas de Brazil,Las Vegas,89119,763,36.0701369,-115.1753018,4.4,6533 S Las Vegas Blvd$*$ Las Vegas$*$ NV 89119,16981172,0,1
42058,42058,a106074,b2318,Yama Sushi,Las Vegas,89119,1536,36.11552045,-115.1349706,4,1350 E Flamingo Rd$*$ Ste 18,0,ugLqbAvBdRDc-gS4hpslXw,Yama Sushi,Las Vegas,89119,489,36.114809,-115.136073,4.5,1350 E Flamingo Rd$*$ Las Vegas$*$ NV 89119,16980968,0,1
44100,44100,a120042,b2358,Yard House Town Square,Las Vegas,89119,1049,36.06842674,-115.1780009,4,6593 Las Vegas Blvd S,0,A5Rkh7UymKm0_Rxm9K2PJw,Yard House,Las Vegas,89119,488,36.0682346,-115.1758636,4.2,6593 S Las Vegas Boulevard$*$ Las Vegas$*$ NV 89119,16980971,0,1
46609,46609,a49498,b419,Pizza Brutta,Madison,53711,264,43.0651567,-89.4164023,4.5,1805 Monroe St,0,kPr9rYEkGwbRLgUHvKljQQ,Pizza Brutta,Madison,53711,297,43.065207,-89.416452,4.3,1805 Monroe St$*$ Madison$*$ WI 53711,17503392,0,1
47007,47007,a78675,b411,Brasserie V,Madison,53711,263,43.0640503,-89.4180168,4,1923 Monroe St,0,Dcj69NZJnbJhK-YHP_nULA,Brasserie V,Madison,53711,487,43.064109,-89.41809,4.4,1923 Monroe St.$*$ Madison$*$ WI 53711,17503366,0,1
47524,47524,a116699,b403,Mickies Dairy Bar,Madison,53711,241,43.067439,-89.4129202,4,1511 Monroe St,0,uoUa8ugZLrly0bA268IqEg,Mickies Dairy Bar,Madison,53711,814,43.0676,-89.4128,4.7,1511 Monroe St$*$ Madison$*$ WI 53711,17502401,0,1
47936,47936,a14191,b585,Lon's At the Hermosa,Paradise Valley,85253,296,33.518225,-112.004898,4,5532 N Palo Cristi Rd,0,oj8qk3W7O9oq15VIs-vYJQ,Lon's - The Hermosa Inn,Phoenix,85253,225,33.518368,-112.004635,4,The Hermosa Inn$*$ 5532 North Palo Cristi Road$*$ Biltmore/Arcadia$*$ Phoenix$*$ AZ 85253,17027592,0,1
48090,48090,a79663,b585,The Hermosa Inn,Paradise Valley,85253,33,33.518225,-112.004898,4.5,5532 N Palo Cristi Rd,0,f-KUpaw28JfS6_a_Cv9zWQ,Lon's - The Hermosa Inn,Phoenix,85253,225,33.518368,-112.004635,4,The Hermosa Inn$*$ 5532 North Palo Cristi Road$*$ Biltmore/Arcadia$*$ Phoenix$*$ AZ 85253,17027592,0,1
49266,49266,a84399,b1584,Legume,Pittsburgh,15213,301,40.4503566,-79.9508477,4.5,214 N Craig St,0,vg55SAkrEmuHpWfIMtJjBQ,Legume Bistro,Pittsburgh,15213,693,40.450256,-79.950827,4.2,214 N Craig Street$*$ Pittsburgh$*$ PA 15213,17036767,0,1
49315,49315,a93648,b1582,Fuel & Fuddle,Pittsburgh,15213,227,40.4412454,-79.9566016,3.5,212 Oakland Ave,0,ehaoreB8IzKY8KvRGqxcUA,Fuel & Fuddle,Pittsburgh,15213,897,40.441192,-79.956663,4.2,212 Oakland Ave$*$ Pittsburgh$*$ PA 15213,17036469,0,1
49377,49377,a98037,b1510,Spice Island Tea House,Pittsburgh,15213,259,40.4400334,-79.9559915,4,253 Atwood St,0,Fpm3WvqtrAg2ueh_4pz7iA,Spice Island Tea House,Pittsburgh,15213,1109,40.440271,-79.956363,4.6,253 Atwood St$*$ Pittsburgh$*$ PA 15213,17037440,0,1
49484,49484,a102961,b1555,Union Grill,Pittsburgh,15213,261,40.4448085,-79.9484396,4,413 S Craig St,0,e9KXojla4OuVP7qcC5LNsg,Union Grill,Pittsburgh,15213,754,40.444846,-79.948567,4.3,413 S Craig St$*$ Pittsburgh$*$ PA 15213,17037604,0,1
49538,49538,a105877,b1538,Dave & Andy's,Pittsburgh,15213,197,40.4410237,-79.9575173,4.5,207 Atwood St,0,Hz1F5uruPe1kCsf5PIA6Sg,Dave & Andy's,Pittsburgh,15213,697,40.440987,-79.957225,4.4,207 Atwood St$*$ Pittsburgh$*$ PA 15213,17036293,0,1
50146,50146,a27126,b1567,Armstrong's Express,Bridgeville,15017,17,40.356976,-80.112662,4.5,609 Washington Ave,0,j1CRQHz60LoLBgfoS0loqg,Armstrong's Express,Pittsburgh,15017,387,40.35712,-80.112706,4.3,609 Washington Ave$*$ Bridgeville$*$ PA 15017,17037938,0,1
50285,50285,a37173,b1595,Cucina Bella,Bridgeville,15017,57,40.3496337,-80.0994194,4,1200 Pennsylvania Ave,0,cKbPGglAjIGG6MeVy7n8XQ,Cucina Bella,Pittsburgh,15017,571,40.349499,-80.100212,4.2,1200 Pennsylvania Ave$*$ Bridgeville$*$ PA 15017,17042274,0,1
50404,50404,a101492,b1592,Shouf's Cafe,Bridgeville,15017,49,40.3631094,-80.1104585,4.5,200 Washington Ave,0,X8KLsPEgLe4FuJwRU0tPag,Shouf's Cafe,Pittsburgh,15017,421,40.36311,-80.110292,4.2,200 Washington Ave$*$ Bridgeville$*$ PA 15017,17037747,0,1
50956,50956,a8782,b510,La Grande Orange Grocery,Phoenix,85018,693,33.50231263,-111.9957522,4,4410 N 40th St,0,D3dAx-QW_uuClz4MambeHA,La Grande Orange Grocery,Phoenix,85018,736,33.501531,-111.995564,4.5,4410 North 40th Street$*$ Biltmore/Arcadia$*$ Phoenix$*$ AZ 85018,17027423,0,1
50957,50957,a8782,b511,La Grande Orange Grocery,Phoenix,85018,693,33.50231263,-111.9957522,4,4410 N 40th St,0,D3dAx-QW_uuClz4MambeHA,La Grande Orange Pizzeria,Phoenix,85018,760,33.501531,-111.995564,4.5,4410 N 40th St$*$ Phoenix$*$ AZ 85018,17027424,0,1
53154,53154,a30564,b513,Chelsea's Kitchen,Phoenix,85018,1012,33.5112538,-111.9956517,4,5040 N 40th St,0,IsoLzudHC50oJLiEWpwV-w,Chelsea's Kitchen,Phoenix,85018,952,33.51134,-111.995464,4.4,5040 North 40th Street$*$ Biltmore/Arcadia$*$ Phoenix$*$ AZ 85018,17025770,0,1
53260,53260,a30803,b510,La Grande Orange Pizzeria,Phoenix,85018,653,33.50205325,-111.9957802,4.5,4410 N 40th St,0,7cK9uEV09iPmsTqOqmY3kQ,La Grande Orange Grocery,Phoenix,85018,736,33.501531,-111.995564,4.5,4410 North 40th Street$*$ Biltmore/Arcadia$*$ Phoenix$*$ AZ 85018,17027423,0,1
53261,53261,a30803,b511,La Grande Orange Pizzeria,Phoenix,85018,653,33.50205325,-111.9957802,4.5,4410 N 40th St,0,7cK9uEV09iPmsTqOqmY3kQ,La Grande Orange Pizzeria,Phoenix,85018,760,33.501531,-111.995564,4.5,4410 N 40th St$*$ Phoenix$*$ AZ 85018,17027424,0,1
53382,53382,a31577,b570,Desert Jade,Phoenix,85018,178,33.494918,-112.012263,4,3215 E Indian School Rd,0,tFcmrGLZNEymSnijoTPmqw,Desert Jade,Phoenix,85018,239,33.495063,-112.012475,4.1,3215 E Indian School Rd$*$ Phoenix$*$ AZ 85018,17026165,0,1
53537,53537,a34678,b596,Chicago Hamburger Co,Phoenix,85018,309,33.4947745,-112.0000425,4,3749 E Indian School Rd,0,UCqWJWovgeelP1OUI_L90w,Chicago Hamburger Co.,Phoenix,85018,204,33.494993,-112.00099,4,3749 E Indian School Rd$*$ Phoenix$*$ AZ 85018,17025788,0,1
53959,53959,a38721,b593,Vincent's On Camelback,Phoenix,85018,124,33.5102548,-111.9962632,4,3930 E Camelback Rd$*$ Ste 202,0,Tl2nqtPXlLbAG3qkUYVM2g,Vincent on Camelback,Phoenix,85018,219,33.510081,-111.996757,4,3930 East Camelback Road$*$ Biltmore/Arcadia$*$ Phoenix$*$ AZ 85018,17029906,0,1
54686,54686,a41966,b558,O.H.S.O. Eatery + NanoBrewery,Phoenix,85018,927,33.495018,-111.975898,4,4900 E Indian School Rd,0,mnwRtuVQEsIUomBchu0gwg,OHSO Eatery + Nanobrewery,Phoenix,85018,200,33.495018,-111.975898,4.1,4900 East Indian School Road$*$ Phoenix$*$ AZ 85018,17033008,0,1
56548,56548,a104501,b552,The Vig,Phoenix,85018,575,33.494489,-111.995106,4,4041 N 40th St,0,flE7Sn2JGs0n3SAtaep6Zw,The Vig,Phoenix,85018,349,33.493931,-111.995324,4.1,4041 N 40th St$*$ Phoenix$*$ AZ 85018,17029878,0,1
57633,57633,a116688,b504,Postino Arcadia,Phoenix,85018,1124,33.5021111,-111.9963386,4.5,3939 E Campbell Ave,0,u-SJ5QUwrNquL9VnXwl8cg,Postino Arcadia,Phoenix,85018,1142,33.502363,-111.996517,4.8,3939 East Campbell Avenue$*$ Biltmore/Arcadia$*$ Phoenix$*$ AZ 85018,17028658,0,1
57775,57775,a40323,b2371,Sushi Tachi,North Las Vegas,89084,306,36.27607546,-115.1778464,3.5,2745 W Centennial Pkwy$*$ Ste 130,0,xrBQKZbhJMCtaZxeJ0tzTQ,Sushi Tachi,Las Vegas,89084,271,36.276388,-115.178042,4.2,2745 W Centennial Pkwy #130$*$ North Las Vegas$*$ NV 89084,16981349,0,1
59530,59530,a49532,b1516,Kaya,Pittsburgh,15222,463,40.4516553,-79.984218,4,2000 Smallman St,0,Ul6JwluSTm12PVDIqnNaTg,Kaya,Pittsburgh,15222,1837,40.451699,-79.984444,4.5,2000 Smallman St$*$ Pittsburgh$*$ PA 15222,17036710,0,1
59614,59614,a51779,b1550,Deluca's Diner,Pittsburgh,15222,413,40.4515431,-79.9837258,4,2015 Penn Ave,0,oeW0vIYd3rUnAPgmD4fEFg,Deluca's,Pittsburgh,15222,1153,40.451356,-79.983915,4.3,2015 Penn Ave$*$ Pittsburgh$*$ PA 15222,17036305,0,1
59901,59901,a62789,b1532,Eleven,Pittsburgh,15222,501,40.4460016,-79.9935003,4,1150 Smallman St,0,d2ZQRjuizstCTnicysmpMQ,Eleven,Pittsburgh,15222,1310,40.445903,-79.99342,4.4,1150 Smallman St$*$ Pittsburgh$*$ PA 15222,17036383,0,1
60045,60045,a64977,b1561,Chicken Latino,Pittsburgh,15222,143,40.45164977,-79.98317242,4,155 21st St,0,Chr3YCuvt2mD-BHgqeo-OA,Chicken Latino,Pittsburgh,15222,411,40.4516755,-79.9830955,4.3,155 21st St$*$ Pittsburgh$*$ PA 15222,17037721,0,1
60197,60197,a66695,b1589,The Enrico Biscotti,Pittsburgh,15222,128,40.4513158,-79.9832025,4,2022 Penn Ave,0,#NAME?,Enrico Biscotti,Pittsburgh,15222,501,40.451189,-79.983623,4.2,2022 Penn Ave$*$ Pittsburgh$*$ PA 15222,17036389,0,1
61533,61533,a88470,b1537,Gaucho Parrilla Argentina,Pittsburgh,15222,985,40.449043,-79.987573,4.5,1601 Penn Ave,0,u4sTiCzVeIHZY8OlaL346Q,Gaucho Parrilla Argentina,Pittsburgh,15222,465,40.449077,-79.987519,4.4,1607 Penn Ave$*$ Pittsburgh$*$ PA 15222,17042997,0,1
63056,63056,a125355,b1577,Meat & Potatoes,Pittsburgh,15222,1249,40.44314459,-80.00110379,4,649 Penn Ave,0,JLbgvGM4FXh9zNP4O5ZWjQ,Meat & Potatoes,Pittsburgh,15222,1865,40.4431017,-80.0012236,4.2,649 Penn Ave$*$ Pittsburgh$*$ PA 15222,17042327,0,1
63762,63762,a55539,b1814,KINKA IZAKAYA BLOOR,Toronto,M5S 1Y6,326,43.665157,-79.410658,4,559 Bloor St W,0,CN5nuUQod0f8g3oh99qq0w,KINKA IZAKAYA BLOOR,Toronto,M5S 1Y6,850,43.66528611,-79.41060556,4.7,559 Bloor Street West$*$ ON M5S 1Y6,8907790,0,1
63953,63953,a9512,b467,La Mestiza,Madison,53719,141,43.056038,-89.4941951,4,6644 Odana Rd,0,wEisic-u9Yj543iYzfpAhw,La Mestiza,Madison,53719,200,43.0561,-89.4952,4,6644 Odana Road$*$ Madison$*$ WI 53719,17502327,0,1
64816,64816,a43051,b500,Sa-Bai Thong West,Madison,53719,95,43.0572311,-89.5000386,3.5,6802 Odana Rd,0,rdXAuI2fKilcf65W-QoASQ,Sa-Bai Thong,Madison,53719,151,43.057095,-89.500404,3.9,6802 Odana Rd$*$ Madison$*$ WI 53719,17504097,0,1
64964,64964,a47093,b405,Thai Noodles,Fitchburg,53719,80,43.01497392,-89.4578836,3.5,5957 Mckee Rd$*$ Ste 3,0,56KQVyOg8eGtwLIgrV51NA,Thai Noodles,Madison,53719,494,43.01524,-89.457519,4.6,5957 Mckee Rd$*$ Fitchburg$*$ WI 53719,17503422,0,1
65030,65030,a56447,b460,Quivey's Grove,Fitchburg,53719,117,43.00922,-89.4792573,3.5,6261 Nesbitt Rd,0,Zzvjuyxr1iudPN_heAAygw,Quivey's Grove,Madison,53719,266,43.0088,-89.481,4,6261 Nesbitt Rd$*$ Fitchburg$*$ WI 53719,17501797,0,1
65382,65382,a74555,b499,Ginza of Tokyo,Madison,53719,58,43.056628,-89.4989583,2.5,6734 Odana Rd,0,f1loh_1c_zp6P1Zv9KSaPg,Ginza of Tokyo West,Madison,53719,178,43.0567,-89.4973,3.9,6734 Odana Rd$*$ Madison$*$ WI 53719,17502221,0,1
66015,66015,a101538,b424,The Nile,Madison,53719,106,43.0530217,-89.4863743,3.5,6119 Odana Rd,0,nJClfvVwSrr2uuo_y2wO4w,The Nile,Madison,53719,250,43.053326,-89.485676,4.3,6119 Odana Road$*$ Madison$*$ WI 53719,17503651,0,1
66695,66695,a136367,b427,Saigon Noodles,Madison,53719,267,43.0571457,-89.4995195,4,6754 Odana Rd,0,HHCn1akqIpl_BhdcJoYPbw,Saigon Noodle,Madison,53719,233,43.0567,-89.4977,4.2,6754 Odana Rd$*$ Madison$*$ WI 53719,17502587,0,1
67747,67747,a6250,b454,Takara Japanese Restaurant,Madison,53703,125,43.074663,-89.3907855,3.5,315 State St,0,mOzxFBAHWwpuH7u5xP0oHw,Wasabi Japanese Restaurant,Madison,53703,241,43.0747,-89.3925,4.1,449 State St Ste 2G$*$ Madison$*$ WI 53703,17502747,0,1
68623,68623,a9515,b414,Marigold Kitchen,Madison,53703,437,43.07434303,-89.3815575,4,118 S Pinckney St,0,BuS11AF9XSHEShscxQEzeg,Marigold Kitchen,Madison,53703,576,43.0744,-89.3819,4.4,118 S Pinckney St$*$ Madison$*$ WI 53703,17502369,0,1
69904,69904,a21768,b402,The Old Fashioned,Madison,53703,1236,43.07618625,-89.38375722,4,23 N Pinckney St,0,RJNAeNA-209sctUO0dmwuA,The Old Fashioned,Madison,53703,1610,43.076277,-89.383534,4.8,23 N Pinckney St$*$ Madison$*$ WI 53703,17502451,0,1
70021,70021,a21962,b447,Bandung Indonesian Restaurant,Madison,53703,169,43.076604,-89.3745656,4,600 Williamson St$*$ Ste M,0,NiBzh0kHusvH5rdnpm7yVw,Bandung Indonesian Restaurant,Madison,53703,262,43.0763,-89.3756,4.1,600 Williamson St$*$ Madison$*$ WI 53703,17501972,0,1
70310,70310,a22589,b430,Sardine,Madison,53703,323,43.07623443,-89.37408551,4,617 Williamson St,0,SBnpT6JDbah-5l_52GM5sw,Sardine,Madison,53703,457,43.0761,-89.3751,4.2,617 Williamson St$*$ Madison$*$ WI 53703,17502592,0,1
70423,70423,a23210,b469,Eldorado Grill,Madison,53703,233,43.07811,-89.372173,4,744 Williamson St,0,Wcw-xq_c89e4AaRsUtkaLw,Eldorado Grill,Madison,53703,211,43.0778,-89.3723,4,744 Williamson St$*$ Madison$*$ WI 53703,17502172,0,1
70683,70683,a25202,b453,Natt Spil,Madison,53703,155,43.07457553,-89.37974441,4,211 King St,0,VGKq16vCdPPHMoryy6XTHg,Natt Spil,Madison,53703,267,43.0745,-89.3799,4.1,211 King St$*$ Madison$*$ WI 53703,17503325,0,1
72548,72548,a29068,b412,Ian's Pizza By The Slice,Madison,53703,152,43.0728935,-89.3956356,4,319 N Frances St,0,c7ZTyqSG4v4ZVwK3vuDklQ,Ian's Pizza by the Slice,Madison,53703,633,43.0725,-89.3956,4.4,319 N Frances St$*$ Madison$*$ WI 53703,17502267,0,1
72552,72552,a29068,b418,Ian's Pizza By The Slice,Madison,53703,152,43.0728935,-89.3956356,4,319 N Frances St,0,c7ZTyqSG4v4ZVwK3vuDklQ,Ian's Pizza,Madison,53703,515,43.0747352,-89.3862121,4.3,100 State St$*$ Madison$*$ WI 53703,17502268,0,1
72746,72746,a30446,b412,Ian's Pizza,Madison,53703,324,43.07489166,-89.38695031,4,100 State St,0,aVBFKYoF0AHuusNssaQpJA,Ian's Pizza by the Slice,Madison,53703,633,43.0725,-89.3956,4.4,319 N Frances St$*$ Madison$*$ WI 53703,17502267,0,1
72750,72750,a30446,b418,Ian's Pizza,Madison,53703,324,43.07489166,-89.38695031,4,100 State St,0,aVBFKYoF0AHuusNssaQpJA,Ian's Pizza,Madison,53703,515,43.0747352,-89.3862121,4.3,100 State St$*$ Madison$*$ WI 53703,17502268,0,1
73386,73386,a30917,b446,Kabul Restaurant,Madison,53703,142,43.075131,-89.394445,3.5,540 State St,0,IsADZMYEJKXTtPfN9YsiBA,Kabul Afghanistan Restaurant,Madison,53703,278,43.0747,-89.3943,4.1,540 State St$*$ Madison$*$ WI 53703,17502314,0,1
76321,76321,a41182,b443,Restaurant Magnus,Madison,53703,33,43.074057,-89.379716,4,120 E Wilson St,0,3QfcfPCJSo0z2v1bkdUemQ,Restaurant Muramoto,Madison,53703,435,43.0745,-89.3797,4.1,225 King St$*$ Madison$*$ WI 53703,17502566,0,1
76659,76659,a41606,b468,Parthenon Gyros Restaurant,Madison,53703,116,43.075014,-89.390617,3.5,316 State St,0,skJ-AlN0DT9pmBDz0ixeJw,Parthenon Gyros Restaurant,Madison,53703,174,43.0749,-89.3904,4,316 State St$*$ Madison$*$ WI 53703,17502488,0,1
77161,77161,a42046,b497,Osteria Papavero,Madison,53703,129,43.07413865,-89.37934544,4,128 E Wilson St,0,G099MT9cwtwgdsR71JLp6w,Osteria Papavero,Madison,53703,171,43.0736,-89.38,3.9,128 E Wilson St$*$ Madison$*$ WI 53703,17502485,0,1
77487,77487,a42381,b479,Mediterranean Cafe,Madison,53703,166,43.0748734,-89.3964524,4.5,625 State St,0,oezMXnkdUQMuMH7RuKaiyw,Mediterranean Cafe,Madison,53703,127,43.0747,-89.3959,4,625 State St$*$ Madison$*$ WI 53703,17502390,0,1
78185,78185,a43108,b498,Vientiane Palace Restaurant,Madison,53703,86,43.0754787,-89.3904163,3.5,151 W Gorham St,0,dfHA5n6e3f58nMCNHt589Q,Vientiane Palace,Madison,53703,178,43.0759,-89.3898,3.9,151 W Gorham St$*$ Madison$*$ WI 53703,17502738,0,1
78299,78299,a43299,b440,Graze,Madison,53703,777,43.07509405,-89.38209146,4,1 S Pinckney St,0,XmsBtCykUtObXg4Q1mYpvg,Graze,Madison,53703,469,43.075444,-89.382871,4.1,1 S Pinckney Street$*$ Madison$*$ WI 53703,17503559,0,1
78852,78852,a43632,b413,Tornado Steak House,Madison,53703,360,43.07243,-89.38434,4,116 S Hamilton St,0,ewEDv_q-K0fV0FepkHB8sA,Tornado Steak House,Madison,53703,646,43.0726,-89.3844,4.4,116 S Hamilton St$*$ Madison$*$ WI 53703,17502709,0,1
79818,79818,a45094,b441,The Cooper's Tavern,Madison,53703,320,43.075216,-89.386276,3.5,20 W Mifflin St,0,#NAME?,Cooper's Tavern,Madison,53703,319,43.075386,-89.38557,4.1,20 W. Mifflin$*$ Madison$*$ WI 53703,17503480,0,1
81433,81433,a65462,b434,Red,Madison,53703,38,43.07284,-89.388113,4.5,316 West Washington Ave$*$ Ste 100,0,6zZDTZ4ZZEYfN268iPz0uQ,Red,Madison,53703,209,43.074801,-89.381717,4.2,316 West Washington Avenue$*$ Suite 100$*$ Madison$*$ Wisconsin.$*$ WI 53703,17503679,0,1
81461,81461,a66318,b415,Dotty Dumpling's Dowry,Madison,53703,373,43.0728191,-89.395561,4,317 N Frances St,0,LZ_R2OLgZQSQMMzlp8uUOA,Dotty Dumpling's Dowry,Madison,53703,732,43.0722,-89.3956,4.3,317 N Frances St$*$ Madison$*$ WI 53703,17502158,0,1
83793,83793,a90819,b496,Sunroom Cafe,Madison,53703,143,43.075159,-89.396178,3.5,638 State St,0,LYpujMCxfrHcSO_NA1BRQg,Sunroom Cafe,Madison,53703,176,43.07499,-89.395985,3.9,638 State St$*$ Madison$*$ WI 53703,17503348,0,1
85111,85111,a104064,b488,Himal Chuli,Madison,53703,181,43.0748011,-89.3906964,4,318 State St,0,Xl6I0-JmFE_6w28bku2idQ,Himal Chuli,Madison,53703,217,43.0749,-89.3904,3.9,318 State St$*$ Madison$*$ WI 53703,17502257,0,1
85522,85522,a104937,b426,Samba Brazilian Grill,Madison,53703,152,43.07546,-89.393063,3.5,240 W Gilman St$*$ Fl 2,0,84WYW7OfV-IXUJk95EL5_Q,Samba Brazilian Grill,Madison,53703,628,43.0759,-89.3923,4.2,240 W Gilman St$*$ Madison$*$ WI 53703,17502590,0,1
85714,85714,a105706,b407,Lazy Jane's,Madison,53703,214,43.0853653,-89.3617096,4,1358 Williamson St,0,#NAME?,Lazy Jane's Cafe & Bakery,Madison,53703,490,43.0853,-89.3616,4.5,1358 Williamson St$*$ Madison$*$ WI 53703,17502341,0,1
85765,85765,a105750,b454,Wasabi Japanese Restaurant & Sushi Bar,Madison,53703,72,43.0745126,-89.3933663,3.5,449 State St,0,tSzIHI6ioblP1WEQAQNbhw,Wasabi Japanese Restaurant,Madison,53703,241,43.0747,-89.3925,4.1,449 State St Ste 2G$*$ Madison$*$ WI 53703,17502747,0,1
86372,86372,a107586,b404,The Weary Traveler Freehouse,Madison,53703,412,43.08325272,-89.36431646,4,1201 Williamson St,0,NYf9TKBKPpa1wkA_uwIlfg,Weary Traveler Freehouse,Madison,53703,649,43.0833,-89.364,4.6,1201 Williamson St$*$ Madison$*$ WI 53703,17502749,0,1
87578,87578,a118215,b451,A Pig In a Fur Coat,Madison,53703,297,43.0805044,-89.3685777,4.5,940 Williamson St,0,OoI3WUe4Xl86d53avy3oVA,A Pig in a Fur Coat,Madison,53703,177,43.0804585,-89.3685384,4.1,940 Williamson St.$*$ Madison$*$ WI 53703,17503788,0,1
87967,87967,a122059,b434,Red,Madison,53703,226,43.072396,-89.387893,4,106 King St,0,O75Lh99ZO6HCIqVVR-p9wg,Red,Madison,53703,209,43.074801,-89.381717,4.2,316 West Washington Avenue$*$ Suite 100$*$ Madison$*$ Wisconsin.$*$ WI 53703,17503679,0,1
88211,88211,a123839,b477,Forequarter,Madison,53703,204,43.0822686,-89.3796148,4,708 E Johnson,0,hOxNKZJ8wWg8Q165U7CCqg,Forequarter,Madison,53703,157,43.0822485,-89.3796342,4,708 1/4 E Johnson St$*$ Madison$*$ WI 53703,17503797,0,1
88637,88637,a126597,b456,Lao Laan-Xang Restaurant,Madison,53703,232,43.083166,-89.364985,4.5,1146 Williamson St,0,VMPSdoBgJuyS9t_x_caTig,Lao Laan-Xang Restaurant,Madison,53703,198,43.0827,-89.3654,4.1,1146 Williamson St$*$ Madison$*$ WI 53703,17502331,0,1
89521,89521,a141805,b443,Restaurant Muramoto,Madison,53703,167,43.07451129,-89.37927922,3.5,225 King St,0,oKYUMYQI7AkjCJdRsKlqtg,Restaurant Muramoto,Madison,53703,435,43.0745,-89.3797,4.1,225 King St$*$ Madison$*$ WI 53703,17502566,0,1
89876,89876,a59077,b349,My Bento Asian Diner,Charlotte,28213,65,35.2966952,-80.7378127,3.5,8640 University City Blvd$*$ Ste A-1,0,pDwKOuqjQ4gtoX-aaQPJ_g,My Bento Asian Diner,Charlotte,28213,547,35.2967132,-80.7376377,4.3,Town Center Plaza$*$ 8640 University City Boulevard$*$ Charlotte$*$ NC 28213,17149854,0,1
90046,90046,a47753,b3501,Bangkok Thai Cuisine,Cleveland,44124,145,41.520092,-81.486463,4,5359 Mayfield Rd,0,goZV-PlwLJOB8s5O3GruxA,Bangkok Thai Cuisine,Cleveland,44124,580,41.52008,-81.486536,4.9,5359 Mayfield Rd$*$ Cleveland$*$ OH 44124,16959188,0,1
90421,90421,a64367,b508,Chino Bandido,Phoenix,85023,1170,33.62683138,-112.1002996,4,15414 N 19th Ave$*$ Ste K,0,cHdJXLlKNWixBXpDwEGb_A,Chino Bandido,Phoenix,85023,952,33.625845,-112.099864,4.5,15414 North 19th Avenue$*$ Deer Valley$*$ Phoenix$*$ AZ 85023,17025865,0,1
90717,90717,a22490,b3572,Thai Spice,Westlake,44145,119,41.4559351,-81.8985725,4,25099 Center Ridge Rd,0,oBX1gy7oj6w6W3VocRQaGw,Thai Spice,Cleveland,44145,338,41.456706,-81.898571,4.2,25099 Center Ridge Rd$*$ Westlake$*$ OH 44145,16964384,0,1
90870,90870,a29690,b3580,Moosehead Saloon,Westlake,44145,56,41.4768533,-81.9214038,3.5,694 Dover Center Rd,0,vfsbLhXGiXm8lqI12abrbQ,Moosehead Saloon,Cleveland,44145,362,41.476831,-81.921328,4.2,694 Dover Center Rd$*$ Westlake$*$ OH 44145,16961797,0,1
91576,91576,a128868,b3571,Sweet Basil Neapolitan Style Pizzeria,Westlake,44145,94,41.4526011,-81.9112298,4,26235 Ctr Ridge Rd,0,spjaRNFn9Lmh4petKBuf5g,Sweet Basil Pizzeria,Cleveland,44145,292,41.452957,-81.911174,4.2,26235 Center Ridge Rd$*$ Westlake$*$ OH 44145,16964266,0,1
91659,91659,a141527,b3568,Mitchell's Homemade Ice Cream - Westlake,Westlake,44145,41,41.4681412,-81.9097584,5,26161 Detroit Rd,0,#NAME?,Mitchell's Homemade Ice Cream,Cleveland,44145,223,41.468942,-81.909851,4.2,26161 Detroit Rd$*$ Westlake$*$ OH 44145,16961777,0,1
92406,92406,a97129,b370,Osaka Japanese Cuisine,Matthews,28105,58,35.138347,-80.684464,3.5,3531 Matthews Mint Hill Rd,0,eUVH2Vs_sHApAKSV4iT2FQ,Osaka Japanese Cuisine,Charlotte,28105,345,35.137981,-80.68332,4.2,3531 Matthews-Mint Hill Road$*$ NC 28105,17147878,0,1
93237,93237,a119562,b2323,Bachi Burger,Las Vegas,89123,2735,36.04279791,-115.153225,4,470 E Windmill Ln$*$ Ste 100,0,7sPNbCx7vGAaH7SbNPZ6oA,Bachi Burger,Las Vegas,89123,595,36.042491,-115.152442,4.4,470 East Windmill Lane$*$ Suite 100$*$ South Las Vegas$*$ Las Vegas$*$ NV 89123,16982003,0,1
93950,93950,a39983,b3553,On the Rise Artisan Breads,Cleveland Heights,44118,86,41.4867455,-81.5550246,4.5,3471 Fairmount Blvd,0,BgGzWcWPwJ7pN5Bm78BuuA,On the Rise Artisan Breads,Cleveland,44118,286,41.48671,-81.555144,4.3,3471 Fairmount Blvd$*$ Cleveland Heights$*$ OH 44118,16962056,0,1
94852,94852,a92586,b3537,Melt Bar & Grilled,Cleveland Heights,44118,434,41.5014712,-81.5562558,4,13463 Cedar Rd,0,C-oKwqnAPa1KJZhMOox60w,Melt Bar & Grilled,Cleveland,44118,839,41.501466,-81.555499,4.3,13463 Cedar Rd$*$ Cleveland Heights$*$ OH 44118,16964727,0,1
94939,94939,a95148,b3562,Anatolia Cafe,Cleveland Heights,44118,182,41.4977568,-81.5655069,4,2270 Lee Rd,0,cuI4nkcx6d1bdG--ZM4oww,Anatolia Cafe,Cleveland,44118,524,41.49768,-81.565395,4.2,2270 Lee Rd$*$ Cleveland Heights$*$ OH 44118,16958958,0,1
95297,95297,a131477,b3564,Pacific East Japanese Restaurant,Cleveland Heights,44118,279,41.511462,-81.5796791,4,1763 Coventry Rd,0,APPZiUz_CEvR_--qY-tbig,Pacific East Japanese,Cleveland,44118,614,41.511515,-81.579816,4.2,1763 Coventry Rd$*$ Cleveland Heights$*$ OH 44118,16962117,0,1
95873,95873,a51580,b2346,The Bagel Cafe,Las Vegas,89145,675,36.1759103,-115.260485,4,Westcliff House$*$ 301 N Buffalo Dr,0,FvVSy2r7_zDEhZWqLgjXNQ,Bagel Cafe,Las Vegas,89145,379,36.176043,-115.260161,4.3,301 North Buffalo Drive$*$ Summerlin$*$ Las Vegas$*$ NV 89145,16977466,0,1
96178,96178,a109962,b2376,Grimaldi's Pizzeria,Las Vegas,89145,395,36.16409898,-115.2897277,4,750 S Rampart Blvd,0,RRw9I8pHt5PzgYGT2QeODw,Grimaldi's Pizzeria,Las Vegas,89145,205,36.165066,-115.289613,4.2,750 S Rampart Blvd Ste 7$*$ Las Vegas$*$ NV 89145,16981957,0,1
96455,96455,a14256,b2345,Sushi Loca,Las Vegas,89149,340,36.2725325,-115.2667252,3.5,6181 Centennial Center Blvd,0,HfuIfYB_CxMAAJiEnxDl9w,Sushi Loca,Las Vegas,89149,558,36.2724,-115.2655,4.3,6181 Centennial Center Bl$*$ Las Vegas$*$ NV 89149,16981092,0,1
96624,96624,a28770,b2382,In-N-Out Burger,Las Vegas,89149,139,36.2652651,-115.2570317,4.5,5690 Centennial Center Blvd,0,mnU3iGsL55MCWXiWV3AcAQ,In-N-Out Burger,Las Vegas,89149,191,36.265236,-115.257832,4.2,5690 Centennial Center Blvd$*$ Las Vegas$*$ NV 89149,16981251,0,1
96946,96946,a51070,b2388,China One,Las Vegas,89149,179,36.28967613,-115.285824,3.5,7080 N Durango Dr$*$ Ste 130,0,UcIrRf2mWgqqlg-HNoDl0A,China One,Las Vegas,89149,253,36.289873,-115.287775,4.2,7080 N Durango Dr.$*$ Las Vegas$*$ NV 89149,16981441,0,1
97521,97521,a92830,b1979,Thai Orchid,Edinburgh,EH1 2PW,51,55.94864401,-3.194266821,4,5A Johnston Terrace,0,jHmFpryK4ide4iiqB3xSFQ,Thai Orchid,Edinburgh,EH1 2PW,124,55.94875,-3.194557,3.9,5a Johnston Terrace$*$ Old Town$*$ Edinburgh EH1 2PW,7602030,0,1
97717,97717,a16508,b565,Culver's,Phoenix,85027,108,33.68319049,-112.0979222,3.5,1825 W Deer Valley Dr,0,Yk8WiriuHOkAXufUqGZMyg,Culver's,Phoenix,85027,320,33.68355,-112.098403,4.1,1825 W Deer Valley Rd$*$ Phoenix$*$ AZ 85027,17030258,0,1
97910,97910,a43441,b540,Times Square Pizzeria,Phoenix,85027,287,33.6842472,-112.1163107,4,2602 W Deer Valley Rd,0,u9R0_pvEkl7QGPJYH3j1sg,Times Square Italian Restaurant & Pizzeria,Phoenix,85027,320,33.683937,-112.116284,4.2,2602 W Deer Valley Rd$*$ Phoenix$*$ AZ 85027,17029713,0,1
98794,98794,a46036,b437,Famous Yeti's Pizza,Stoughton,53589,38,42.9265263,-89.222592,4.5,971 N Page St,0,crBw_Hq3gCkppirgjnIl4A,Famous Yeti's Pizza,Madison,53589,162,42.9266576,-89.2225748,4.2,971 N Page St$*$ Stoughton$*$ WI 53589,17503758,0,1
99084,99084,a3095,b1569,Michael's Pizza Bar & Restaurant,Pittsburgh,15203,65,40.4262306,-79.9682216,4.5,2612 Sarah St,0,38aN0fB_zHtkw1kb3lSj8g,Michael's Pizza Bar,Pittsburgh,15203,389,40.426403,-79.968562,4.3,2612 Sarah St$*$ Pittsburgh$*$ PA 15203,17036901,0,1
99914,99914,a26924,b1522,Cafe Du Jour,Pittsburgh,15203,132,40.4289089,-79.9871434,4.5,1107 E Carson St,0,jalA5zHW8ZfY3RSPG7oDxQ,Cafe Du Jour,Pittsburgh,15203,640,40.428937,-79.987349,4.5,1107 E Carson St$*$ Pittsburgh$*$ PA 15203,17036097,0,1
100089,100089,a28327,b1507,Piper's Pub,Pittsburgh,15203,291,40.4284268,-79.9794308,4.5,1828 E Carson St,0,VxRlBe2wjtycFWSZm1orTA,Piper's Pub,Pittsburgh,15203,1274,40.428599,-79.980077,4.7,1828 E Carson St$*$ Pittsburgh$*$ PA 15203,17037138,0,1
101109,101109,a36379,b1585,Emilliano's Mexican Restaurant and Bar,Pittsburgh,15203,185,40.42772234,-79.9686308,3.5,2557 E Carson St,0,7mU3l5VjH1IxsXcxBxUblg,Emiliano's Mexican Restaurant & Bar,Pittsburgh,15203,758,40.427767,-79.968944,4.2,2557 E. Carson St$*$ Pittsburgh$*$ PA 15203,17041338,0,1
101583,101583,a42493,b1599,The Pretzel Shop,Pittsburgh,15203,87,40.4280121,-79.9722633,4.5,2316 E Carson St,0,aDHD7nASfqiQBB6YXy2aGA,Pretzel Shop,Pittsburgh,15203,308,40.428164,-79.972581,4.2,2316 E Carson St$*$ Pittsburgh$*$ PA 15203,17041400,0,1
102006,102006,a44026,b1536,Thai Me Up,Pittsburgh,15203,142,40.427086,-79.973273,3.5,118 S 23rd St,0,EZ9Uf-lSRtj1fvdMQlrwAw,Thai Me Up,Pittsburgh,15203,1007,40.4270463,-79.9732619,4.4,118 South 23rd St$*$ Pittsburgh$*$ PA 15203,17037548,0,1
102040,102040,a44385,b1551,Kassab's,Pittsburgh,15203,94,40.4288913,-79.9860781,4,1207 E Carson St,0,lTxZFiWEd2NNF4Eh7_mlRg,Kassab's,Pittsburgh,15203,691,40.428937,-79.986166,4.3,1207 E Carson Street$*$ Pittsburgh$*$ PA 15203,17036706,0,1
102123,102123,a44759,b1506,Fat Heads Saloon,Pittsburgh,15203,580,40.4289667,-79.9801756,4,1805 E Carson St,0,LQFmktF43j2NPncKdNd9mg,Fat Head's Saloon,Pittsburgh,15203,2526,40.428837,-79.980395,4.7,1805 E Carson St$*$ Pittsburgh$*$ PA 15203,17036408,0,1
102438,102438,a78402,b1564,Cambod-Ican Kitchen,Pittsburgh,15203,92,40.4288853,-79.98206969,4,1701 E Carson St,0,vx5CbYuuIq_CHxjov5kj1w,Cambod-Ican Kitchen,Pittsburgh,15203,589,40.428946,-79.981839,4.3,1701 E Carson St$*$ Pittsburgh$*$ PA 15203,17036120,0,1
102522,102522,a80513,b1529,Dish Osteria and Bar,Pittsburgh,15203,167,40.4275026,-79.982307,4.5,128 S 17th St,0,7PRse3yCQbEprAj1DWrEQQ,Dish Osteria & Bar,Pittsburgh,15203,1087,40.427641,-79.982218,4.4,128 S 17th St$*$ Pittsburgh$*$ PA 15203,17036320,0,1
102690,102690,a102556,b1558,The Milk Shake Factory,Pittsburgh,15203,178,40.4290279,-79.9817237,4,1705 E Carson St,0,K8M3OeFCcAnxuxtTc0BQrQ,The Milk Shake Factory,Pittsburgh,15203,508,40.428947,-79.98191,4.3,1705 East Carson Street$*$ Pittsburgh$*$ PA 15203,17041311,0,1
104458,104458,a30688,b544,Panda Garden,Phoenix,85044,88,33.33194498,-111.9816185,4,4730 E Warner Rd,0,dHTGzM4_3kKEiQvab9mi9A,Panda Garden,Phoenix,85044,262,33.330903,-111.983102,4.2,4730 E Warner Rd$*$ Phoenix$*$ AZ 85044,17028328,0,1
104816,104816,a34665,b539,Sakana Sushi & Grill,Phoenix,85044,345,33.347684,-111.976156,3.5,5061 E Elliot Rd,0,jOJaJatp88cqnkVo8D8RJg,Sakana Sushi & Grill,Phoenix,85044,327,33.348763,-111.97668,4.2,5061 East Elliot Road$*$ Ahwatukee$*$ Phoenix$*$ AZ 85044,17029025,0,1
106104,106104,a77661,b542,Great Wok,Phoenix,85044,100,33.3165932,-112.0035568,4,3646 E Ray Rd$*$ Ste 12,0,R7-3MCD6_RL_VxN65yCh2Q,Great Wok,Phoenix,85044,292,33.316161,-112.003574,4.2,3646 E Ray Road$*$ Phoenix$*$ AZ 85044,17030937,0,1
106412,106412,a90702,b550,Hillside Spot,Phoenix,85044,425,33.33191496,-111.9813405,3.5,4740 E Warner Rd,0,fKm6mfATDJRDDQH0PtZeeQ,Hillside Spot,Phoenix,85044,512,33.330827,-111.98183,4.1,4740 E. Warner Rd$*$ Phoenix$*$ AZ 85044,17031611,0,1
106532,106532,a102597,b522,Los Taquitos,Phoenix,85044,615,33.3480616,-111.9820214,4,4747 E Elliot Rd$*$ Ste 17,0,P8IsTiHq5Hesa6UPL604ww,Los Taquitos,Phoenix,85044,424,33.348763,-111.981083,4.3,4747 E Elliot Rd$*$ Phoenix$*$ AZ 85044,17027660,0,1
106624,106624,a103868,b528,Florencia Pizza Bistro,Ahwatukee,85044,129,33.31676446,-112.0040087,4.5,3646 E Ray Rd$*$ Ste 20,0,eVv6cnwhabK8ig5Di2hXQQ,Florencia Pizza Bistro,Phoenix,85044,324,33.315639,-112.005774,4.3,3646 E Ray Rd$*$ Phoenix$*$ AZ 85044,17026598,0,1
106695,106695,a105666,b524,Nellos Pizza,Phoenix,85044,170,33.3313761,-111.982699,4,4710 E Warner Rd$*$ Ste 10,0,TVYJx5iUkLJFiuiXc8rxEQ,Nello's Pizza,Phoenix,85044,404,33.330861,-111.982886,4.3,4710 E Warner Road$*$ Phoenix$*$ AZ 85044,17028076,0,1
107088,107088,a123203,b566,Biscuits,Phoenix,85044,198,33.34836201,-111.9838858,3.5,4623 E Elliott Rd,0,oi6mahpAmEuikfihFVDmCw,Biscuits,Phoenix,85044,251,33.3485028,-111.9837827,4.1,4623 E Elliot Rd$*$ Phoenix$*$ AZ 85044,17032017,0,1
107866,107866,a29727,b2338,Lucille's Smokehouse Bar-B-Que,Henderson,89052,728,36.02059831,-115.0863904,4,The District At Green Valley Ranch$*$ 2245 Village Walk Dr,0,0ldxjei8v4q95fApIei3Lg,Lucille's Smokehouse Bar-B-Que,Las Vegas,89052,1052,36.021433,-115.086227,4.3,2245 Village Walk Dr$*$ Henderson$*$ NV 89052,16979209,0,1
108605,108605,a52925,b2306,I Love Sushi,Henderson,89052,741,35.99162286,-115.1028514,4.5,11041 S Eastern Ave,0,OK0ba4X5seibH8oMWh4bhw,I Love Sushi,Las Vegas,89052,829,35.991343,-115.101169,4.7,11041 S Eastern Ave$*$ Henderson$*$ NV 89052,16978730,0,1
109439,109439,a25228,b3519,Rays Place,Kent,44240,134,41.1529909,-81.3589635,4,153 Franklin Ave,0,GdZ-Ryn9QzqV4glodYF6Jg,Ray's Place,Cleveland,44240,501,41.153612,-81.358598,4.5,135 Franklin Ave$*$ Kent$*$ OH 44240,16962469,0,1
109686,109686,a47278,b3551,Taco Tonto's,Kent,44240,114,41.1533068,-81.3586334,4,123 Franklin Ave,0,Iw9k29FJCZ0fC68oxK1NtA,Taco Tonto's,Cleveland,44240,387,41.154036,-81.358517,4.3,123 Franklin Ave$*$ Kent$*$ OH 44240,16963004,0,1
109939,109939,a75205,b342,Jim 'N Nick's Bar-B-Q,Charlotte,28273,210,35.10504148,-80.98988365,4,13840 Steele Creek Rd,0,E3BTs8yFlVbZd20TknY00A,Jim 'N Nick's Bar-B-Q,Charlotte,28273,607,35.106239,-80.988791,4.3,13840 Steele Creek Road$*$ NC 28273,17148531,0,1
110245,110245,a16775,b568,In-N-Out Burger,Phoenix,85050,113,33.676354,-111.9736513,4,21001 N Tatum Blvd,0,u12UCVo-zyFTX2Nxf_n63A,In-N-Out Burger,Phoenix,85050,325,33.676937,-111.977134,4.1,21001 N Tatum Blvd$*$ Phoenix$*$ AZ 85050,17027078,0,1
110340,110340,a43737,b562,Yard House,Phoenix,85050,387,33.67623404,-111.9711773,3.5,21001 North Tatum Blvd,0,p9v9Sl2g_ibaajWvO0NjkQ,Yard House,Phoenix,85050,241,33.676937,-111.977134,4.1,21001 N Tatum Blvd$*$ Phoenix$*$ AZ 85050,17030053,0,1
110534,110534,a62729,b584,Tryst Cafe,Phoenix,85050,440,33.677854,-111.978579,3.5,21050 N Tatum Blvd,0,2DmTw0k3bcXuHdAyxO_bkw,Tryst Cafe,Phoenix,85050,223,33.678139,-111.977666,4,21050 North Tatum Boulevard$*$ AZ 85050,17032211,0,1
111315,111315,a103742,b548,Angie & Jimmie's Italian Pizza,Phoenix,85017,76,33.5109932,-112.1328012,4,3446 W Camelback Rd,0,e-gVqGEtnjEkunvQ5J3uyA,Angie & Jimmie's Italian Pizza,Phoenix,85017,192,33.495114,-112.127032,4.2,3126 West Indian School Road$*$ Midtown$*$ Phoenix$*$ AZ 85017,17025063,0,1
112298,112298,a106461,b384,P F Chang's,Charlotte,28210,133,35.146916,-80.827256,3,6809 Phillips Place Ct,0,EbgUkmDxPUa2fr0rc8EFJQ,P.F. Chang's,Charlotte,28210,912,35.146581,-80.827175,4.1,6809 Phillips Place Court$*$ NC 28210,17147887,0,1
112309,112309,a107120,b315,Original Pancake House,Charlotte,28210,152,35.14839312,-80.83341645,4,4736 Sharon Rd,0,NI3xvN6p0qhvUkKirbKokA,Original Pancake House,Charlotte,28210,604,35.147255,-80.831618,4.5,4736 Sharon Road$*$ Charlotte$*$ NC 28210,17147876,0,1
112416,112416,a117610,b354,Cafe Monte,Charlotte,28210,310,35.147139,-80.828793,4,6700 Fairview Rd,0,tCSlpwJQ4CZsUEMZeH2SFg,Cafe Monte,Charlotte,28210,852,35.147713,-80.829113,4.2,6700 Fairview Road$*$Suite 108$*$ Charlotte$*$ NC 28210,17148534,0,1
112874,112874,a129442,b523,Pho Thanh,Phoenix,85015,582,33.5100117,-112.0960331,4,1702 W Camelback Rd$*$ Ste 14,0,gQMAcDm8kv8ev7x2BshMwg,Pho Thanh,Phoenix,85015,267,33.509737,-112.095796,4.3,1702 West Camelback Road$*$ Midtown$*$ Phoenix$*$ AZ 85015,17028517,0,1
113039,113039,a9123,b559,America's Taco Shop,Phoenix,85006,379,33.470887,-112.064765,3.5,2041 N 7th St,0,WOz66UuVsfc2K9GxzfDnGg,America's Taco Shop,Phoenix,85006,270,33.470124,-112.064945,4.1,2041 North 7th Street$*$ Phoenix$*$ AZ 85006,17030463,0,1
113240,113240,a38272,b549,Barrio Caf,Phoenix,85006,1047,33.4790158,-112.0479886,4,2814 N 16th St,0,eS29S_06lvsDW04wVrIVxg,Barrio Cafe,Phoenix,85006,781,33.478778,-112.047817,4.1,2814 North 16th Street$*$ Midtown$*$ Phoenix$*$ AZ 85006,17025256,0,1
113325,113325,a65404,b551,La Santisima,Phoenix,85006,1253,33.469201,-112.047393,4.5,1919 N 16th St,0,frCxZS7lPhEnQRJ3UY6m7A,La Santisima Gourmet Taco Shop,Phoenix,85006,250,33.469201,-112.047393,4.1,1919 North 16th Street$*$ Midtown$*$ Phoenix$*$ AZ 85006,17031685,0,1
114084,114084,a88894,b586,Rosita's Place,Phoenix,85006,260,33.4660268,-112.0323718,4,2310 E Mcdowell Rd,0,iIjVO7cLD1UEmIO7G05Ujw,Rosita's Place,Phoenix,85006,219,33.465937,-112.032071,4,2310 East McDowell Road$*$ East Phoenix$*$ Phoenix$*$ AZ 85006,17028962,0,1
114916,114916,a136982,b561,Tuck Shop,Phoenix,85006,466,33.4728423,-112.0560979,4.5,2245 N 12th St,0,-Bdw-5H5C4AYSMGnAvmnzw,Tuck Shop,Phoenix,85006,299,33.472027,-112.056223,4.1,2245 North 12th Street$*$ Midtown$*$ Phoenix$*$ AZ 85006,17030385,0,1
114954,114954,a137969,b541,The Main Ingredient Ale House And Caf,Phoenix,85006,509,33.47458269,-112.0646431,4,2337 N 7th St,0,MgHWbwuxxb_txhI3lK_bKg,The Main Ingredient Ale House & Cafe,Phoenix,85006,231,33.473709,-112.064954,4.2,2337 North 7th Street$*$ Midtown$*$ Phoenix$*$ AZ 85006,17031649,0,1
115054,115054,a2141,b2350,Chicken Shack,Henderson,89014,338,36.0721935,-115.0729977,4,4606 E Sunset Rd,0,aqwn3jdQLCWnb59gHK4nAw,The Chicken Shack,Las Vegas,89014,219,36.071137,-115.073086,4.3,4606 E Sunset Rd$*$ Henderson$*$ NV 89014,16977903,0,1
115149,115149,a7792,b2344,In-N-Out Burger,Henderson,89014,150,36.0633628,-115.0339166,4,1051 W Sunset Rd,0,kxYiZnd7Y-3ibdwnMFuTzw,In-N-Out Burger,Las Vegas,89014,455,36.063586,-115.034151,4.3,1051 W Sunset Rd$*$ Henderson$*$ NV 89014,16981245,0,1
116080,116080,a62132,b2311,Weiss Restaurant Deli & Bakery,Henderson,89014,418,36.06983431,-115.0800352,4,2744 N Green Valley Pkwy,0,k7Sy557_ZaQSGHFlZgeJzw,Weiss Restaurant Deli and Bakery,Las Vegas,89014,466,36.070154,-115.082157,4.6,2744 N Green Valley Parkway$*$ Henderson$*$ NV 89014,16980881,0,1
117091,117091,a82674,b2374,Ross J's Aloha Grill,Henderson,89014,388,36.071403,-115.072358,4,4650 E Sunset Rd$*$ Ste A,0,SueEpC916vd8Lo3Lyl9_pQ,Ross J's Aloha Grill,Las Vegas,89014,272,36.071117,-115.072436,4.2,4650 E Sunset Rd$*$ Henderson$*$ NV 89014,16980089,0,1
118963,118963,a9746,b3543,Joe's Deli,Rocky River,44116,173,41.4712991,-81.8350803,4,19215 Hilliard Blvd,0,sWucpMb_MDdqAthWFFisow,Joe's Deli,Cleveland,44116,594,41.471463,-81.835295,4.3,19215 Hilliard Blvd$*$ Rocky River$*$ OH 44116,16961179,0,1
119284,119284,a125734,b3525,Danny Boy's Pizza,Rocky River,44116,106,41.482986,-81.845433,4,20251 Lake Rd,0,2VEa7rpo68KG0_5pBj0dFA,Danny Boy's Pizza,Cleveland,44116,560,41.483504,-81.845139,4.4,20251 Lake Rd$*$ Rocky River$*$ OH 44116,16960045,0,1
119514,119514,a69993,b2343,Pin Kaow Thai Restaurant,Las Vegas,89108,469,36.195393,-115.241323,4,1974 N Rainbow Blvd,0,elqbBhBfElMNSrjFqW3now,Pin Kaow Thai,Las Vegas,89108,520,36.194967,-115.241882,4.3,1974 N Rainbow Boulevard$*$ Las Vegas$*$ NV 89108,16979782,0,1
119857,119857,a5682,b2365,Vintner Grill,Las Vegas,89135,521,36.160122,-115.31731,4,10100 W Charleston Blvd$*$ Ste 150,0,qmymSqVwHYRqdwfcBatzpQ,Vintner Grill,Las Vegas,89135,514,36.15919,-115.316661,4.2,10100 W Charleston Blvd$*$ Las Vegas$*$ NV 89135,16980853,0,1
120453,120453,a67271,b2317,BJ's Restaurant & Brewhouse,Las Vegas,89135,430,36.159552,-115.331914,4,10840 West Charleston,0,OVTY-NpcTA7iXbMQmusv3A,BJ's Restaurant and Brewhouse,Las Vegas,89135,718,36.159237,-115.331597,4.5,10840 W Charleston Blvd$*$ Las Vegas$*$ NV 89135,16977581,0,1
121022,121022,a140798,b2375,Due Forni,Las Vegas,89135,410,36.1248405,-115.3252217,4,3555 S Town Center Dr$*$ Ste 105,0,bPcqucuuClxYrIM8xWoArg,Due Forni,Las Vegas,89135,311,36.125885,-115.324674,4.2,3555 South Town Center Drive #105$*$ Summerlin South$*$ Las Vegas$*$ NV 89135,16982235,0,1
121066,121066,a125744,b2367,Leticia's Mexican Cocina,Las Vegas,89143,821,36.29887519,-115.2800882,4,7585 Norman Rockwell Ln$*$ Bldg 1,0,pomGBqfbxcqPv14c3XH-ZQ,Leticia's Cocina,Las Vegas,89143,481,36.298924,-115.280107,4.2,7585 Norman Rockwell Lane$*$ Las Vegas$*$ NV 89143,16981606,0,1
121070,121070,a276,b3592,Zappitelli's Pizza,Mentor,44060,38,41.681422,-81.2962052,4,9570 Mentor Ave,0,O54jXbKjZte4qVYabYjGjg,Zappitelli's,Cleveland,44060,239,41.682048,-81.29663,4.2,9570 Mentor Ave$*$ Mentor$*$ OH 44060,16963406,0,1
121351,121351,a71437,b3589,Scooter's Dawghouse,Mentor,44060,78,41.724476,-81.294445,4.5,9600 Blackbrook Rd,0,nEMUUOvFB2Vi90uiF4rlCg,Scooters Dawghouse,Cleveland,44060,268,41.72447,-81.294857,4.2,9600 Blackbrook Rd$*$ Mentor$*$ OH 44060,16962693,0,1
122098,122098,a17977,b507,Los Reyes De La Torta,Phoenix,85020,533,33.5708402,-112.0656524,4.5,9230 N 7th St,0,2g4ZTD3ePNSbDAvh6qAOKQ,Los Reyes de la Torta,Phoenix,85020,469,33.570743,-112.065364,4.6,9230 North 7th Street$*$ Sunnyslope/North Mountain$*$ Phoenix$*$ AZ 85020,17027656,0,1
124101,124101,a138815,b595,Super Dragon,Phoenix,85020,117,33.5530686,-112.0560674,4,1212 E Northern Ave,0,SVMR0kRmdd-bbSNTTECJBA,Super Dragon,Phoenix,85020,167,33.553237,-112.055993,4,1212 East Northern Avenue$*$ Sunnyslope/North Mountain$*$ Phoenix$*$ AZ 85020,17029461,0,1
126444,126444,a3438,b2329,Ellis Island Casino & Brewery,Las Vegas,89109,1758,36.1130255,-115.1634847,4,4178 Koval Ln,0,EAwh1OmG6t6p3nRaZOW_AA,Ellis Island Casino and Brewery,Las Vegas,89109,408,36.113064,-115.163809,4.4,4178 Koval Lane$*$ Las Vegas$*$ NV 89109,16978312,0,1
128308,128308,a5384,b2357,Maggiano's Little Italy,Las Vegas,89109,1068,36.12760705,-115.1685336,4,3200 Las Vegas Blvd S,0,LFs5jyYdXlzi0SpAYi1eSA,Maggiano's Little Italy,Las Vegas,89109,524,36.127544,-115.168233,4.2,3200 S Las Vegas Blvd$*$ Las Vegas$*$ NV 89109,16979247,0,1
129547,129547,a5967,b2301,Mon Ami Gabi,Las Vegas,89109,6414,36.11282706,-115.1725815,4,3655 Las Vegas Blvd S,0,4JNXUYY8wbaaDmk3BPzlWw,Mon Ami Gabi,Las Vegas,89109,2553,36.1125,-115.172222,4.9,3655 S Las Vegas Boulevard$*$ Las Vegas$*$ NV 89109,16979446,0,1
133442,133442,a9862,b2326,L'Atelier de Jol Robuchon,Las Vegas,89109,886,36.10259007,-115.1705414,4.5,3799 Las Vegas Blvd S,0,mUdalYTuAtnZm2K9zoH27Q,L'Atelier de Jol Robuchon,Las Vegas,89109,411,36.10222,-115.169516,4.4,3799 Las Vegas Boulevard S$*$ Las Vegas$*$ NV 89109,16979023,0,1
133449,133449,a9862,b2339,L'Atelier de Jol Robuchon,Las Vegas,89109,886,36.10259007,-115.1705414,4.5,3799 Las Vegas Blvd S,0,mUdalYTuAtnZm2K9zoH27Q,Jol Robuchon,Las Vegas,89109,289,36.10222,-115.169516,4.3,3799 Las Vegas Boulevard S$*$ Las Vegas$*$ NV 89109,16978909,0,1
135308,135308,a12631,b2357,Dino's Little Italy,Las Vegas,89109,6,36.106542,-115.17204,2,3743 Las Vegas Blvd,0,yniif9v-2PpVIbsotxv6OA,Maggiano's Little Italy,Las Vegas,89109,524,36.127544,-115.168233,4.2,3200 S Las Vegas Blvd$*$ Las Vegas$*$ NV 89109,16979247,0,1
137193,137193,a14331,b2337,Joe's Seafood Prime Steak & Stone Crab,Las Vegas,89109,1691,36.11864532,-115.1736291,4.5,The Forum Shop At Caesars Palace$*$ 3500 Las Vegas Blvd S$*$ Ste R-05,0,I6EDDi4-Eq_XlFghcDCUhw,Joe's Seafood$*$ Prime Steak & Stone Crab,Las Vegas,89109,730,36.116111,-115.1744,4.3,3500 Las Vegas Boulevard S$*$ Las Vegas$*$ NV 89109,16978884,0,1
138580,138580,a16077,b2308,Jean Philippe Patisserie,Las Vegas,89109,1178,36.10681461,-115.178175,4,3730 Las Vegas Blvd S,0,H8qpFitIesth86zqR4cwYg,Jean-Philippe Ptisserie,Las Vegas,89109,358,36.107635,-115.176722,4.6,3730 Las Vegas Boulevard S$*$ Las Vegas$*$ NV 89109,16981693,0,1
138581,138581,a16077,b2309,Jean Philippe Patisserie,Las Vegas,89109,1178,36.10681461,-115.178175,4,3730 Las Vegas Blvd S,0,H8qpFitIesth86zqR4cwYg,Jean-Philippe Ptisserie,Las Vegas,89109,353,36.111712,-115.17534,4.6,3600 Las Vegas Boulevard S$*$ Las Vegas$*$ NV 89109,16978840,0,1
153395,153395,a53965,b2330,Tacos El Gordo,Las Vegas,89109,1831,36.13159421,-115.1647668,4,3049 S Las Vegas Blvd,0,RwMLuOkImBIqqYj4SSKSPg,Tacos el Gordo,Las Vegas,89109,222,36.1317765,-115.1650152,4.4,3049 S Las Vegas Boulevard$*$ Las Vegas$*$ NV 89109,16982474,0,1
155001,155001,a56184,b2324,Julian Serrano,Las Vegas,89109,1429,36.10585591,-115.1742626,4,3730 Las Vegas Blvd S,0,_w5hBpkjHs5_Hv3pLeHtIw,Julian Serrano,Las Vegas,89109,514,36.107635,-115.176722,4.4,3730 Las Vegas Boulevard S$*$ Las Vegas$*$ NV 89109,16981685,0,1
159298,159298,a61832,b2304,Earl of Sandwich,Las Vegas,89109,103,36.1177242,-115.1758364,3,3570 Las Vegas Blvd S,0,fE7x3Ui2mzdwdfJnd7r_1g,Earl of Sandwich,Las Vegas,89109,631,36.11077,-115.17282,4.7,Planet Hollywood$*$ 3667 South Las Vegas Boulevard$*$ The Strip$*$ Las Vegas$*$ NV 89109,16978241,0,1
162528,162528,a67050,b2327,Spago,Las Vegas,89109,944,36.11909409,-115.1770096,4,The Forum Shops At Caesars$*$ 3500 Las Vegas Blvd S$*$ Ste G1,0,LwQB9H3jZ9wTk24Lr-AnZQ,Spago,Las Vegas,89109,513,36.116111,-115.1744,4.4,3500 Las Vegas Boulevard S$*$ Las Vegas$*$ NV 89109,16980318,0,1
162751,162751,a67056,b2364,Fiamma Trattoria & Bar,Las Vegas,89109,694,36.10156,-115.172953,4,3799 Las Vegas Blvd S,0,dCUuzw3R2rPqKyN2Zl9zRw,Fiamma Trattoria & Bar,Las Vegas,89109,217,36.10222,-115.169516,4.2,MGM Grand$*$ 3799 Las Vegas Boulevard S$*$ Las Vegas$*$ NV 89109,16978398,0,1
165051,165051,a70470,b2334,Gordon Ramsay BurGR,Las Vegas,89109,5116,36.110724,-115.172169,4,3667 Las Vegas Blvd S,0,cYwJA2A6I12KNkm2rtXd5g,Gordon Ramsay BurGR,Las Vegas,89109,773,36.11077,-115.17282,4.3,3667 Las Vegas Boulevard S$*$ Las Vegas$*$ NV 89109,16982906,0,1
167303,167303,a73398,b2390,The Buffet,Las Vegas,89109,3676,36.12688722,-115.16559,3.5,Wynn Las Vegas$*$ 3131 Las Vegas Blvd S,0,2weQS-RnoOBhb1KsHKyoSQ,The Wynn Buffet,Las Vegas,89109,707,36.129444,-115.166111,4.1,3131 S Las Vegas Boulevard$*$ Las Vegas$*$ NV 89109,16977686,0,1
167910,167910,a73708,b2308,Jean Philippe Patisserie,Las Vegas,89109,1046,36.11194592,-115.1768768,4,3600 S Las Vegas Blvd,0,UUGoM4q4i8rK2CBRS0xDAw,Jean-Philippe Ptisserie,Las Vegas,89109,358,36.107635,-115.176722,4.6,3730 Las Vegas Boulevard S$*$ Las Vegas$*$ NV 89109,16981693,0,1
167911,167911,a73708,b2309,Jean Philippe Patisserie,Las Vegas,89109,1046,36.11194592,-115.1768768,4,3600 S Las Vegas Blvd,0,UUGoM4q4i8rK2CBRS0xDAw,Jean-Philippe Ptisserie,Las Vegas,89109,353,36.111712,-115.17534,4.6,3600 Las Vegas Boulevard S$*$ Las Vegas$*$ NV 89109,16978840,0,1
168490,168490,a73751,b2361,SW Steakhouse,Las Vegas,89109,883,36.12616708,-115.1668137,4,3131 Las Vegas Blvd S,0,L_ZLtfHvfzfoNVQ0-okTXg,SW Steakhouse,Las Vegas,89109,314,36.129444,-115.166111,4.2,3131 S Las Vegas Blvd$*$ Las Vegas$*$ NV 89109,16980119,0,1
170025,170025,a74515,b2341,Le Cirque,Las Vegas,89109,548,36.11312656,-115.175263,4.5,3600 S Las Vegas Blvd,0,rtlsfmdufArhk-47sWIf2w,Le Cirque,Las Vegas,89109,243,36.111712,-115.17534,4.3,3600 Las Vegas Boulevard S$*$ Las Vegas$*$ NV 89109,16979122,0,1
170376,170376,a74671,b2342,La Creperie,Las Vegas,89109,427,36.11252664,-115.1713514,3.5,3655 Las Vegas Blvd S,0,6fPQJq4f_yiq1NHn0fd11Q,La Creperie,Las Vegas,89109,300,36.1125,-115.172222,4.3,3655 S Las Vegas Boulevard$*$ Las Vegas$*$ NV 89109,16979034,0,1
171107,171107,a75043,b2336,The Cheesecake Factory,Las Vegas,89109,496,36.11886434,-115.1781065,4,3500 South Las Vegas Blvd.,0,#NAME?,The Cheesecake Factory,Las Vegas,89109,352,36.1179352,-115.1748371,4.3,3500 S Las Vegas Blvd$*$ Las Vegas$*$ NV 89109,16977880,0,1
172549,172549,a75453,b2359,Wolfgang Puck Bar & Grill,Las Vegas,89109,1282,36.102543,-115.169884,4,3799 S Las Vegas Blvd,0,N0apJkxIem2E8irTBRKnHw,Wolfgang Puck Bar & Grill,Las Vegas,89109,336,36.10222,-115.169516,4.2,3799 Las Vegas Boulevard S$*$ Las Vegas$*$ NV 89109,16980959,0,1
173352,173352,a75916,b2356,Olives,Las Vegas,89109,1543,36.111978,-115.17698,4,3600 S Las Vegas Blvd,0,QJR4qBUHegWEozSQrGmBPw,Olives,Las Vegas,89109,630,36.111712,-115.17534,4.2,3600 Las Vegas Boulevard S$*$ Las Vegas$*$ NV 89109,16979590,0,1
174416,174416,a76235,b2399,Eiffel Tower Restaurant,Las Vegas,89109,1314,36.112477,-115.172189,4,3655 Las Vegas Blvd S,0,xVEtGucSRLk5pxxN0t4i6g,Eiffel Tower Restaurant,Las Vegas,89109,420,36.1125,-115.172222,4.1,3655 South Las Vegas Boulevard$*$ The Strip$*$ Las Vegas$*$ NV 89109,16978254,0,1
174563,174563,a76240,b2313,Mesa Grill,Las Vegas,89109,2771,36.11712457,-115.1747927,4,3570 Las Vegas Blvd S,0,XZbuPXdyA0ZtTu3AzqtQhg,Mesa Grill,Las Vegas,89109,1410,36.116111,-115.1744,4.5,3570 Las Vegas Boulevard S$*$ Las Vegas$*$ NV 89109,16979381,0,1
176792,176792,a76854,b2394,Delmonico Steakhouse,Las Vegas,89109,1311,36.123183,-115.16919,4,3355 Las Vegas Blvd S,0,--9e1ONYQuAa-CB_Rrw7Tw,Delmonico Steakhouse,Las Vegas,89109,714,36.121,-115.1702,4.1,3355 Las Vegas Boulevard S$*$ Las Vegas$*$ NV 89109,16978142,0,1
177144,177144,a76976,b2396,Battista's Hole In the Wall,Las Vegas,89109,813,36.115471,-115.1679198,3.5,4041 Linq Ln,0,yNVcnSaMSrTmjJBMrHTy9w,Battista's Hole in the Wall,Las Vegas,89109,587,36.114988,-115.168072,4.1,4041 Linq Lane$*$ The Strip$*$ Las Vegas$*$ NV 89109,16977523,0,1
188564,188564,a82884,b2314,Grand Lux Cafe,Las Vegas,89109,962,36.123618,-115.17033,4,PALAZZO Resort Hotel Casino$*$ 3327 Las Vegas Blvd S$*$ Ste 1580,0,fHM09_y3QX3n4a_bIFbk_w,Grand Lux Cafe,Las Vegas,89109,1022,36.121,-115.1702,4.5,3355 Las Vegas Boulevard S$*$ Las Vegas$*$ NV 89109,16978572,0,1
189090,189090,a83177,b2321,Wicked Spoon,Las Vegas,89109,5216,36.10987566,-115.1751638,3.5,The Cosmopolitan Of Las Vegas$*$ 3708 Las Vegas Blvd S,0,K7lWdNUhCbcnEvI0NhGewg,Wicked Spoon,Las Vegas,89109,670,36.108303,-115.173302,4.4,3708 Las Vegas Boulevard South$*$ Las Vegas$*$ NV 89109,16982135,0,1
189542,189542,a83248,b2312,The Peppermill Restaurant & Fireside Lounge,Las Vegas,89109,2260,36.13361303,-115.163122,4,2985 Las Vegas Blvd S,0,XXW_OFaYQkkGOGniujZFHg,Peppermill Restaurant & Fireside Lounge,Las Vegas,89109,696,36.133165,-115.163963,4.5,2985 S Las Vegas Blvd$*$ Las Vegas$*$ NV 89109,16979737,0,1
193800,193800,a86144,b2392,P.F. Chang's,Las Vegas,89109,440,36.10995195,-115.1736737,3.5,3667 Las Vegas Blvd,0,Knnc473zh8m7IBC0oLTHkg,P.F. Chang's China Bistro,Las Vegas,89109,374,36.11077,-115.17282,4.1,3667 Las Vegas Boulevard S$*$ Las Vegas$*$ NV 89109,16979642,0,1
198174,198174,a90175,b2391,Hash House A Go Go,Las Vegas,89109,3881,36.11788299,-115.1712445,4,The LINQ Hotel & Casino$*$ 3535 Las Vegas Blvd S,0,f4x1YBxkLrZg652xt2KR5g,Hash House a Go Go,Las Vegas,89109,696,36.118212,-115.172554,4.1,3535 Las Vegas Blvd S$*$ Las Vegas$*$ NV 89109,16981709,0,1
203897,203897,a108756,b2326,Jol  Robuchon,Las Vegas,89109,777,36.103399,-115.167725,4.5,3799 Las Vegas Blvd S,0,XnJeadLrlj9AZB8qSdIR2Q,L'Atelier de Jol Robuchon,Las Vegas,89109,411,36.10222,-115.169516,4.4,3799 Las Vegas Boulevard S$*$ Las Vegas$*$ NV 89109,16979023,0,1
203904,203904,a108756,b2339,Jol  Robuchon,Las Vegas,89109,777,36.103399,-115.167725,4.5,3799 Las Vegas Blvd S,0,XnJeadLrlj9AZB8qSdIR2Q,Jol Robuchon,Las Vegas,89109,289,36.10222,-115.169516,4.3,3799 Las Vegas Boulevard S$*$ Las Vegas$*$ NV 89109,16978909,0,1
205329,205329,a116402,b2314,Grand Lux Cafe,Las Vegas,89109,2218,36.12227644,-115.1701225,4,The Venetian Hotel & Casino$*$ 3355 Las Vegas Blvd S,0,NvKNe9DnQavC9GstglcBJQ,Grand Lux Cafe,Las Vegas,89109,1022,36.121,-115.1702,4.5,3355 Las Vegas Boulevard S$*$ Las Vegas$*$ NV 89109,16978572,0,1
207283,207283,a123062,b2304,Earl of Sandwich,Las Vegas,89109,4655,36.109361,-115.171877,4.5,3667 Las Vegas Blvd S,0,DkYS3arLOhA8si5uUEmHOw,Earl of Sandwich,Las Vegas,89109,631,36.11077,-115.17282,4.7,Planet Hollywood$*$ 3667 South Las Vegas Boulevard$*$ The Strip$*$ Las Vegas$*$ NV 89109,16978241,0,1
208470,208470,a123999,b2397,TAO Asian Bistro,Las Vegas,89109,1228,36.12273527,-115.1700286,3.5,The Venetian$*$ 3355 S Las Vegas Blvd,0,fQt4D34vcJNtEf8Q4zte3w,Tao Asian Bistro,Las Vegas,89109,502,36.121,-115.1702,4.1,3355 Las Vegas Boulevard S$*$ Las Vegas$*$ NV 89109,16980571,0,1
215778,215778,a130076,b2390,The SLS Buffet,Las Vegas,89109,62,36.1427564,-115.1578748,3.5,SLS Las Vegas$*$ 2535 S Las Vegas Blvd,0,SnMUTGhY2nW2Ldb0QJAjAg,The Wynn Buffet,Las Vegas,89109,707,36.129444,-115.166111,4.1,3131 S Las Vegas Boulevard$*$ Las Vegas$*$ NV 89109,16977686,0,1
218719,218719,a29240,b393,Beef 'N Bottle,Charlotte,28209,222,35.179294,-80.876098,3.5,4538 South Blvd,0,1MvR4NJQbHy0i7ME1IoYpw,Beef & Bottle,Charlotte,28209,427,35.180147,-80.875999,4.1,4538 South Boulevard$*$ Charlotte$*$ NC 28209,17146734,0,1
218863,218863,a31834,b379,Luisa's Brick Oven,Charlotte,28209,85,35.170641,-80.84658,4,1730 Abbey Pl,0,n5wZxYrle8ROuK-Saq-yyw,Luisa's Brick Oven,Charlotte,28209,205,35.169379,-80.847447,4.2,Montford Abbey$*$ 1730 Abbey Place$*$ Charlotte$*$ NC 28209,17147653,0,1
218903,218903,a33201,b340,Good Food on Montford,Charlotte,28209,444,35.1709488,-80.8483245,4.5,1701 Montford Dr,0,hggVnGwA5042-ABxqeJX-A,Good Food on Montford,Charlotte,28209,545,35.170842,-80.848583,4.3,1701 Montford Drive$*$ Charlotte$*$ NC 28209,17149639,0,1
219429,219429,a54422,b347,Portofino's,Charlotte,28209,152,35.1604695,-80.8500527,4,5126 Park Rd$*$ Ste 1c,0,w3PwDEbI0EDx4YI_BkFhIA,Portofino's,Charlotte,28209,495,35.160682,-80.849083,4.3,5126 Park Road$*$ Suite 1C$*$ Charlotte$*$ NC 28209,17147988,0,1
219711,219711,a78580,b386,Cantina 1511,Charlotte,28209,398,35.1735755,-80.84993108,3.5,4271 Park Rd$*$ Ste B,0,k-drEjxKmfqllwfY90STfA,Cantina 1511,Charlotte,28209,999,35.20023,-80.841894,4.1,4721 Park Road Suite B$*$ Charlotte$*$ NC 28209,17146869,0,1
220281,220281,a118235,b325,The Roasting Company,Charlotte,28209,226,35.1708615,-80.8496225,4,1601 Montford Dr,0,mOMeDQB8NjdBTTzKtikAYg,Roasting Company,Charlotte,28209,511,35.170767,-80.849556,4.4,1521 Montford Drive$*$ Charlotte$*$ NC 28209,17148071,0,1
220886,220886,a20112,b2340,Hofbruhaus Las Vegas,Las Vegas,89169,1149,36.10775703,-115.1516913,3.5,4510 Paradise Rd,0,cJWbbvGmyhFiBpG_5hf5LA,Hofbrauhaus Las Vegas,Las Vegas,89169,435,36.107728,-115.151824,4.3,4510 Paradise Rd$*$ Las Vegas$*$ NV 89169,16978679,0,1
221350,221350,a27348,b305,The Lodge,Charlotte,28226,63,35.106407,-80.8077349,4,7725 Colony Rd,0,yxLVwItd1Wnhy6SeUUcNYA,The Lodge,Charlotte,28226,691,35.107536,-80.807886,4.7,7725 Colony Road Suite 4$*$ Charlotte$*$ NC 28226,17149641,0,1
221824,221824,a20427,b459,Angelo's,Monona,53716,22,43.0567319,-89.326138,3,5801 Monona Dr,0,OTDogJk9hVcM0oT_ia_09g,Angelo's,Madison,53716,146,43.0567319,-89.326138,4,5801 Monona Dr$*$ Madison$*$ WI 53716,17502928,0,1
222281,222281,a116408,b483,David's Jamaican Cuisine,Monona,53716,55,43.0569909,-89.32527,4,5734 Monona Dr,0,UDyScSvpzBEgOGs6HAXcRg,David's Jamaican Cuisine,Madison,53716,127,43.0578,-89.3256,4,5734 Monona Dr$*$ Monona$*$ WI 53716,17502937,0,1
222372,222372,a8588,b375,The Dive N,Pineville,28134,75,35.0859529,-80.8870612,4,109 N Polk St,0,opBoB-pMHzUaK0-zsnUd1Q,Dive N,Charlotte,28134,237,35.085348,-80.886904,4.2,109 N Polk Street$*$ NC 28134,17149803,0,1
225336,225336,a128734,b545,Wang Express,Phoenix,85032,65,33.6399,-111.9781637,3.5,4747 E Bell Rd$*$ Ste 19,0,fseN-tYwcbjtYm7DjjEjLw,Wang's Express,Phoenix,85032,227,33.640363,-111.978884,4.2,4747 East Bell Road$*$ Northeast Phoenix$*$ Phoenix$*$ AZ 85032,17029944,0,1
225368,225368,a128987,b600,40th Street Cafe,Phoenix,85032,123,33.6273462,-111.995345,4,4022 E Greenway Rd$*$ Ste 10,0,gQg_z_bqR9Lp9oLuv659YA,40th Street Cafe,Phoenix,85032,188,33.626603,-111.995192,4,4022 E Greenway Rd$*$ Phoenix$*$ AZ 85032,17024955,0,1
225388,225388,a129069,b598,Saba's Mediterranean Kitchen,Phoenix,85032,209,33.639783,-111.97826,4.5,4747 E Bell Rd,0,len2nrEtgD9bjnoYSyLPjA,Saba's Mediterranean Cuisine,Phoenix,85032,210,33.640363,-111.978884,4,4747 East Bell Road$*$ Northeast Phoenix$*$ Phoenix$*$ AZ 85032,17029003,0,1
226304,226304,a136454,b327,Rock Store Bar-B-Q,Stallings,28104,81,35.0819793,-80.6925926,4.5,3116 Old Monroe Rd,0,U2a9GUewP6LyOilaQhue9g,Rockstore Bar-B-Q,Charlotte,28104,396,35.081825,-80.692335,4.4,3116 Old Monroe Road$*$ Stallings$*$ NC 28104,17148240,0,1
226595,226595,a45430,b516,Carolina's Mexican Food,Phoenix,85034,505,33.4315556,-112.0560841,4,1202 E Mohave St,0,89uU51kOiQXbJHVA3C6XMQ,Carolina's Mexican Food,Phoenix,85034,480,33.431537,-112.056197,4.4,1202 East Mohave Street$*$ Downtown$*$ Phoenix$*$ AZ 85034,17025688,0,1
226612,226612,a46685,b529,Knock Kneed Lobster,Phoenix,85034,135,33.4485057,-112.0126321,3.5,3202 E Washington St,0,3u4AsqA8glBmGuxtNx5mdQ,Knock Kneed Lobster,Phoenix,85034,222,33.448381,-112.012631,4.3,3202 East Washington Street$*$ East Phoenix$*$ Phoenix$*$ AZ 85034,17027343,0,1
227255,227255,a143426,b516,Carolina's Mexican Food,Phoenix,85034,4,33.4371541,-112.0576624,5,1122 E Buckeye Rd$*$ Ste A5,0,bWq5fLpzPAf_97E4_LuXJA,Carolina's Mexican Food,Phoenix,85034,480,33.431537,-112.056197,4.4,1202 East Mohave Street$*$ Downtown$*$ Phoenix$*$ AZ 85034,17025688,0,1
227325,227325,a1663,b321,Dandelion Market,Charlotte,28202,452,35.2286689,-80.84241,4,118 W 5th St,0,SHFlELFcEcAOJv_fTAKChQ,Dandelion Market,Charlotte,28202,658,35.22833,-80.84208,4.4,118 W 5th Street$*$ Charlotte$*$ NC 28202,17149867,0,1
228833,228833,a61648,b382,Mert's Heart & Soul,Charlotte,28202,687,35.2273178,-80.8401304,3.5,214 N College St,0,aO1gAp41n8w8zpxTiHdLNA,Mert's Heart and Soul,Charlotte,28202,987,35.227127,-80.84048,4.1,214 N College Street$*$ Charlotte$*$ NC 28202,17147744,0,1
229592,229592,a82245,b381,The Capital Grille,Charlotte,28202,281,35.22831377,-80.8419989,4.5,201 N Tryon St,0,vqG1Z2XpS_PryPsfY0CSng,Capital Grille,Charlotte,28202,536,35.228159,-80.841882,4.1,201 N Tryon Street$*$ Charlotte$*$ NC 28202,17146871,0,1
229730,229730,a83827,b387,Mimosa Grill,Charlotte,28202,343,35.224456,-80.84547,4,327 S Tryon St,0,Ch7NAhB_MWSDwcNbcptEKg,Mimosa Grill,Charlotte,28202,370,35.225329,-80.845572,4.1,Two Wells Fargo Center$*$327 S Tryon Street$*$ Charlotte$*$ NC 28202,17147766,0,1
229790,229790,a84188,b331,Chima Brazilian Steakhouse,Charlotte,28202,336,35.226268,-80.843786,4,139 S Tryon St,0,tInrGCzll4k9hF34Ye1rvQ,Chima Brazilian Steakhouse,Charlotte,28202,1048,35.226775,-80.843428,4.3,139 S Tryon Street$*$ Charlotte$*$ NC 28202,17149532,0,1
230140,230140,a93160,b316,Alexander Michael's,Charlotte,28202,264,35.23361,-80.840783,4.5,401 W 9th St,0,VeFqptSzekFAc3FZOpi81Q,Alexander Michael's,Charlotte,28202,580,35.233628,-80.840815,4.5,401 W 9th Street$*$ Charlotte$*$ NC 28202,17146657,0,1
232043,232043,a140832,b310,Little Village Grill,Charlotte,28202,133,35.232204,-80.848589,4.5,710 W Trade St$*$ Ste G,0,IIUK1lz_1upqYtHu8ZuClA,Little Village Grill,Charlotte,28202,373,35.232179,-80.848506,4.6,710 W Trade Street$*$ NC 28202,17147625,0,1
232750,232750,a5976,b3583,Blackbird Baking Company,Lakewood,44107,89,41.4823651,-81.8293549,4.5,1391 Sloane Ave,0,993MaVXjU2qhmQQYR_mdVg,Blackbird Baking Company,Cleveland,44107,271,41.482215,-81.829582,4.2,1391 Sloane Avenue$*$ Lakewood$*$ OH 44107,16964497,0,1
232825,232825,a6836,b3510,Deagan's Kitchen & Bar,Lakewood,44107,326,41.4851918,-81.8001448,4,14810 Detroit Ave,0,HQl28KMwrEKHqhFrrDqVNQ,Deagan's Kitchen & Bar,Cleveland,44107,1143,41.485254,-81.799743,4.6,14810 Detroit Ave$*$ Lakewood$*$ OH 44107,16964739,0,1
233780,233780,a61628,b3511,Buckeye Beer Engine,Lakewood,44107,294,41.4771044,-81.8043205,4,15315 Madison Ave,0,ZWcXoh_RO7rT2DdcyOzyfQ,Buckeye Beer Engine,Cleveland,44107,767,41.477268,-81.803849,4.6,15315 Madison Ave$*$ Lakewood$*$ OH 44107,16959457,0,1
234090,234090,a68340,b3569,India Garden,Lakewood,44107,158,41.4826339,-81.8254373,4,18405 Detroit Ave,0,ScdtR67jO-p_ZIpVbZPRfw,India Garden,Cleveland,44107,424,41.482892,-81.825698,4.2,18405 Detroit Ave$*$ Lakewood$*$ OH 44107,16961061,0,1
234174,234174,a71298,b3508,Melt Bar & Grilled,Lakewood,44107,739,41.4853447,-81.7990467,4,14718 Detroit Ave,0,JFaTPxWQC14VmFnXLv7W1g,Melt Bar & Grilled,Cleveland,44107,2369,41.485319,-81.798596,4.6,14718 Detroit Ave$*$ Lakewood$*$ OH 44107,16961705,0,1
234214,234214,a72175,b3541,Aladdin's Eatery,Lakewood,44107,78,41.48545785,-81.79689167,4,14536 Detroit Ave,0,2-9wu090DJutG_MPUgPWQw,Aladdin's Eatery,Cleveland,44107,573,41.485359,-81.796803,4.3,14536 Detroit Ave$*$ Lakewood$*$ OH 44107,16958902,0,1
234395,234395,a76453,b3544,Barroco,Lakewood,44107,370,41.4770749,-81.7783377,4.5,12906 Madison Ave,0,le3JWiS5uZTkofP90Rm0pA,Barroco Grill,Cleveland,44107,360,41.477074,-81.778378,4.3,12906 Madison Avenue$*$ Lakewood$*$ OH 44107,16964945,0,1
234576,234576,a84163,b3569,Namaste India Garden,Lakewood,44107,101,41.4855287,-81.7951881,4.5,14412 Detroit Ave,0,b4LxjVnFdOCqRKxfweaTqw,India Garden,Cleveland,44107,424,41.482892,-81.825698,4.2,18405 Detroit Ave$*$ Lakewood$*$ OH 44107,16961061,0,1
235428,235428,a119137,b3540,Pier W,Lakewood,44107,296,41.49345201,-81.77818984,4,12700 Lake Ave,0,26Uk74dNTGysPq2ceaj2OA,Pier W,Cleveland,44107,515,41.491134,-81.777756,4.3,12700 Lake Ave$*$ Lakewood$*$ OH 44107,16962276,0,1
236405,236405,a137507,b3505,Angelo's Pizza,Lakewood,44107,350,41.47699302,-81.78825871,4,13715 Madison Ave,0,0qsarzXaZau8REdE0rToxA,Angelo's Pizza,Cleveland,44107,1020,41.476972,-81.788284,4.7,13715 Madison Ave$*$ Lakewood$*$ OH 44107,16958977,0,1
236577,236577,a4655,b350,500 Degrees New York Style Pizzeria,Charlotte,28217,103,35.1533683,-80.8752317,4.5,6037 South Blvd,0,Yc5_nA9NqqxOp8WCugF-Ng,500 Degrees Pizzeria,Charlotte,28217,267,35.15383,-80.876123,4.3,6037 South Boulevard$*$ NC 28217,17149772,0,1
237088,237088,a66668,b309,Vietnam Grille,Charlotte,28217,294,35.15982556,-80.87580254,4,5615 South Blvd,0,s6lTNO57vXsfzyYrPfXOvA,Vietnam Grille,Charlotte,28217,749,35.159533,-80.876005,4.6,5615 South Boulevard$*$ Charlotte$*$ NC 28217,17149667,0,1
237346,237346,a50905,b1509,Fiori's Pizzaria,Pittsburgh,15226,201,40.405245,-80.018538,4.5,103 Capital Ave,0,Iam7tYWhssw_rscSBkeRIQ,Fiori's Pizzaria,Pittsburgh,15226,1388,40.405224,-80.018518,4.6,103 Capital Avenue$*$ Pittsburgh$*$ PA 15226,17036421,0,1
237813,237813,a1294,b1657,Esquire Lounge,Champaign,61820,98,40.116597,-88.242292,4,106 N Walnut St,0,D6SCh4BwNb52wZIqXdS4JQ,Esquire Lounge,Champaign,61820,87,40.1166,-88.2424,3.8,106 N Walnut St$*$ Champaign$*$ IL 61820,17317292,0,1
238061,238061,a1848,b1650,Za's Italian Cafe,Champaign,61820,29,40.1399247,-88.2458532,3,1905 N Neil St,0,2YnUIGGmhoJX4Cd61nQLkg,Za's Italian Cafe,Champaign,61820,138,40.140043,-88.245383,3.8,1905 N Neil St$*$ Champaign$*$ IL 61820,17317782,0,1
238094,238094,a1978,b1619,Vinny's East Coast Pizzeria,Champaign,61820,56,40.0977984,-88.2484631,3.5,401 W. Kirby Ave,0,t952QLgrh-5l1woJ4IFgUA,Vinny's East Coast Pizzeria,Champaign,61820,244,40.09796,-88.247774,4.1,401 W. Kirby Ave$*$ Champaign$*$ IL 61820,17317817,0,1
238767,238767,a5185,b1668,Flat Top Grill,Champaign,61820,84,40.1114257,-88.2304288,3,607 S 6th St,0,vAUDxhbsWZKI8NJlsYwCMA,Flat Top Grill,Champaign,61820,106,40.1114257,-88.2304292,3.7,607 S 6th St$*$ Champaign$*$ IL 61820,17317303,0,1
239331,239331,a8364,b1698,Sam's Cafe,Champaign,61820,84,40.1169853,-88.2427068,4,115 N Walnut St,0,Gvox18F9QxsSS9qG2O8E-A,Sam's Cafe,Champaign,61820,51,40.1168,-88.2427,3.6,115 N Walnut St$*$ Champaign$*$ IL 61820,17317442,0,1
239352,239352,a8365,b1631,Amano's Pizza,Champaign,61820,9,40.0995658,-88.2443819,4.5,1407 S Neil St,0,Pj8n8jDPRdXi7RdOABJkWA,Amano's Pizza,Champaign,61820,109,40.0995658,-88.2443819,4,1407 South Neil Street$*$ Champaign$*$ IL 61820,17318036,0,1
240066,240066,a10198,b1667,Cafe Kopi,Champaign,61820,141,40.116825,-88.242716,4,109 N Walnut St,0,e0prCZXtHGQIKeQ_wTW3uw,Cafe Kopi,Champaign,61820,78,40.1166,-88.2427,3.7,109 N Walnut St$*$ Champaign$*$ IL 61820,17317246,0,1
240715,240715,a10776,b1665,Merry-Ann's Diner,Champaign,61820,58,40.09845251,-88.24424621,3,1510 S Neil St,0,wsuzuLD3KV7L8oMinLCI0A,Merry Ann's Diner,Champaign,61820,136,40.1182,-88.2434,3.7,1 E Main St$*$ Champaign$*$ IL 61820,17317379,0,1
240982,240982,a11275,b1700,301 Mongolia,Champaign,61820,57,40.118742,-88.2443626,3.5,301 N Neil St,0,XuByFsXXhnKmZ6hxucOj7A,301 Mongolia,Champaign,61820,58,40.1190386,-88.2438816,3.6,301 N Neil St$*$ Champaign$*$ IL 61820,17317936,0,1
241037,241037,a12876,b1608,Farren's Pub & Eatery,Champaign,61820,212,40.1183497,-88.2451587,4,308 N Randolph St,0,kNtToQSP_Y5U8tznLXuCaw,Farren's Pub & Eatery,Champaign,61820,257,40.1185,-88.245,4.3,308 N Randolph St$*$ Champaign$*$ IL 61820,17317298,0,1
241129,241129,a12877,b1695,Monical's Pizza,Champaign,61820,24,40.097774,-88.24573,3.5,103 W Kirby Ave,0,bVt5eOVdpZzg83qlW9Rl2g,Monical's Pizza,Champaign,61820,89,40.098,-88.2448,3.6,103 W Kirby Ave$*$ Champaign$*$ IL 61820,17317384,0,1
241845,241845,a15723,b1622,Radio Maria,Champaign,61820,261,40.1171251,-88.2426687,3.5,119 N Walnut St,0,lWmDrnqgU6w3gFaJyn_1Uw,Radio Maria,Champaign,61820,348,40.1167,-88.2427,4,119 N Walnut St$*$ Champaign$*$ IL 61820,17317431,0,1
242012,242012,a16587,b1652,Fat Sandwich Company,Champaign,61820,76,40.1092381,-88.2315641,3.5,502 E John St,0,zp3rZNu-5qonTL3ByPYOUg,Fat Sandwich Company,Champaign,61820,110,40.109238,-88.23184,3.8,502 E John St$*$ Champaign$*$ IL 61820,17317810,0,1
243257,243257,a24958,b1639,Meatheads,Champaign,61820,122,40.101522,-88.24448,4,1305 S Neil St,0,th4pZ5LkoIIkb1Vmu_m2DA,Meatheads,Champaign,61820,99,40.101522,-88.24448,3.9,1305 South Neil Street$*$ Champaign$*$ IL 61820,17317942,0,1
243375,243375,a25410,b1689,Cream & Flutter,Champaign,61820,155,40.11682,-88.242122,3.5,114 N Walnut St,0,LW21U6m6axC2lCLYc0fFSA,Cream & Flutter,Champaign,61820,84,40.116627,-88.24237,3.6,114 North Walnut$*$ Champaign$*$ IL 61820,17317798,0,1
247033,247033,a28975,b1602,Qdoba Mexican Grill,Champaign,61820,15,40.110041,-88.2296889,2,617 E Green St,0,MpAhuv_BBhYHDElgx1pD4g,Maize Mexican Grill,Champaign,61820,253,40.110373,-88.238918,4.6,60 E Green St$*$ Champaign$*$ IL 61820,17317935,0,1
248949,248949,a31064,b1628,Murphy's Deli,Champaign,61820,3,40.1127011,-88.2407279,4.5,40 E Springfield Ave,0,8BUVhDF9yLzzthhFxeceYA,Murphy's Pub,Champaign,61820,137,40.1104,-88.2303,4,604 E Green St$*$ Champaign$*$ IL 61820,17317388,0,1
250789,250789,a34450,b1610,Dos Reales,Champaign,61820,166,40.1298862,-88.2584824,4,1407 N Prospect Ave,0,X57f6FWZiwI1wOidPPhOrQ,Dos Reales,Champaign,61820,383,40.1298,-88.2582,4.2,1407 N Prospect Ave$*$ Champaign$*$ IL 61820,17317281,0,1
252653,252653,a39853,b1632,Biaggi's Ristorante Italiano,Champaign,61820,157,40.0865554,-88.2470018,3.5,2235 S Neil St,0,qeJnMI5RmyJ2TZvkqvjn6Q,Biaggi's Ristorante Italiano,Champaign,61820,267,40.0874,-88.2465,3.9,2235 S Neil St$*$ Champaign$*$ IL 61820,17317227,0,1
254110,254110,a41359,b1648,Bombay Indian Grill,Champaign,61820,57,40.114132,-88.238369,3.5,302 S 1st St,0,RTmIbq33chUSa-etGiF8Lg,Bombay Indian Grill,Champaign,61820,140,40.1102,-88.2334,3.8,403 E Green St$*$ Champaign$*$ IL 61820,17317233,0,1
254490,254490,a41702,b1613,Chopstix,Champaign,61820,51,40.110524,-88.23669,3,202 E Green St$*$ Ste 1,0,vsoEZauF4lrADIqCYXySFQ,Chopstix,Champaign,61820,192,40.110387,-88.236854,4.2,202 E Green st$*$ Champaign$*$ IL 61820,17317885,0,1
254670,254670,a41726,b1675,Aroma Cafe,Champaign,61820,110,40.1170558,-88.2432469,4,118 N Neil St,0,0FrYsoVHheQGoXEQsH2d2Q,Aroma Cafe,Champaign,61820,57,40.117,-88.2433,3.6,118 N Neil St$*$ Champaign$*$ IL 61820,17317211,0,1
254850,254850,a41977,b1629,Sushi Kame,Champaign,61820,120,40.1185309,-88.2448027,3.5,132 W. Church St,0,0-WocGTpO3Zm4q1Zzz49Rw,Sushi Kame,Champaign,61820,127,40.1184,-88.2442,4,132 W Church St$*$ Champaign$*$ IL 61820,17317469,0,1
255615,255615,a42462,b1665,Merry-Ann's Diner,Champaign,61820,42,40.11813314,-88.24289991,3,1 E Main St,0,#NAME?,Merry Ann's Diner,Champaign,61820,136,40.1182,-88.2434,3.7,1 E Main St$*$ Champaign$*$ IL 61820,17317379,0,1
256010,256010,a42626,b1648,Bombay Indian Grill,Champaign,61820,80,40.110474,-88.233544,3.5,401 E Green St,0,E6QAh8UPRo6Tlg6hkcWCHw,Bombay Indian Grill,Champaign,61820,140,40.1102,-88.2334,3.8,403 E Green St$*$ Champaign$*$ IL 61820,17317233,0,1
256180,256180,a42746,b1697,Fiesta Cafe,Champaign,61820,53,40.1147989,-88.2384807,3.5,216 S 1st St,0,_a6jhRFIgOe74U73T5B-Ww,Fiesta Cafe,Champaign,61820,74,40.1151,-88.2385,3.6,216 S 1st St$*$ Champaign$*$ IL 61820,17317301,0,1
256499,256499,a43097,b1628,Murphy's Pub,Champaign,61820,100,40.11037991,-88.23018797,3.5,604 E Green St,0,mklo4H47YWK7f18YXTCEoA,Murphy's Pub,Champaign,61820,137,40.1104,-88.2303,4,604 E Green St$*$ Champaign$*$ IL 61820,17317388,0,1
256654,256654,a43198,b1633,Destihl Restaurant & Brew Works,Champaign,61820,387,40.11837952,-88.2437014,4,301 N Neil St,0,#NAME?,Destihl Restaurant & Brew Works,Champaign,61820,222,40.118377,-88.243698,3.9,301 N. Neil St.$*$ Champaign$*$ IL 61820,17317911,0,1
256786,256786,a43201,b1606,Seven Saints,Champaign,61820,244,40.11655588,-88.24201277,4,32 E Chester St,0,L2c-qKZWumCmOCR-dqBLrg,Seven Saints,Champaign,61820,483,40.116549,-88.242119,4.3,32 E Chester St$*$ Champaign$*$ IL 61820,17317789,0,1
257792,257792,a44154,b1615,Kofusion,Champaign,61820,229,40.11856662,-88.24323304,3.5,1 E Main St,0,NEVA0IYbawceL6kz5v5DAw,Kofusion,Champaign,61820,517,40.1182,-88.2434,4.1,1 E Main St$*$ Champaign$*$ IL 61820,17317351,0,1
258046,258046,a44491,b1623,Bacaro,Champaign,61820,142,40.11690698,-88.24260192,4,113 N Walnut St,0,jeTfL2kCyBtmFGSrSQHqVw,Bacaro,Champaign,61820,266,40.1167,-88.2427,4,113 N Walnut St$*$ Champaign$*$ IL 61820,17317216,0,1
259983,259983,a64429,b1602,Maize Mexican Grill,Champaign,61820,414,40.1104086,-88.2389546,4.5,60 E Green St,0,VIJ2KiDKhUVhhpNylEIfog,Maize Mexican Grill,Champaign,61820,253,40.110373,-88.238918,4.6,60 E Green St$*$ Champaign$*$ IL 61820,17317935,0,1
261901,261901,a74549,b1630,Cravings,Champaign,61820,129,40.11122037,-88.22906041,4,603 S Wright St,0,gnqHyA6gY2-m9S-FKt6Xqw,Cravings,Champaign,61820,130,40.1114,-88.2291,4,603 S Wright St$*$ Champaign$*$ IL 61820,17317268,0,1
262388,262388,a77047,b1609,Cactus Grill,Champaign,61820,45,40.0996476,-88.2447937,4,1405 S Neil St$*$ Ste C,0,Z7r_FJXEyfyvVsyv2y7gFQ,Cactus Grill,Champaign,61820,210,40.099715,-88.244508,4.3,1405 S Neil St$*$ Champaign$*$ IL 61820,17317696,0,1
263833,263833,a84267,b1602,Chipotle Mexican Grill,Champaign,61820,65,40.11037478,-88.23069222,3,528 E Green St$*$ Ste 101,0,kUICYu0N_TbtCz0Z8ynPFw,Maize Mexican Grill,Champaign,61820,253,40.110373,-88.238918,4.6,60 E Green St$*$ Champaign$*$ IL 61820,17317935,0,1
263847,263847,a84267,b1626,Chipotle Mexican Grill,Champaign,61820,65,40.11037478,-88.23069222,3,528 E Green St$*$ Ste 101,0,kUICYu0N_TbtCz0Z8ynPFw,Chipotle Mexican Grill,Champaign,61820,166,40.1104,-88.2316,4,528 E Green St$*$ Champaign$*$ IL 61820,17317260,0,1
264219,264219,a87506,b1674,Rainbow Garden,Champaign,61820,58,40.1004504,-88.2439462,3.5,1402 S Neil St,0,zswdqM8Av3KxVv9o7_6ORA,Rainbow Garden,Champaign,61820,92,40.0997,-88.2441,3.7,1402 S Neil St Ste 3$*$ Champaign$*$ IL 61820,17317432,0,1
264324,264324,a93273,b1687,Guido's Bar & Grill,Champaign,61820,95,40.1178627,-88.24330139,3,2 E Main St,0,F1qPjasn0R6-j8sa6iYNmA,Guido's Bar & Grill,Champaign,61820,98,40.118127,-88.243564,3.6,2 E Main St$*$ Champaign$*$ IL 61820,17317320,0,1
264385,264385,a94130,b1605,Cocomero,Champaign,61820,109,40.109995,-88.22911,4,709 S Wright St,0,dNch89PUCbxvhieKmWi8LQ,Cocomero,Champaign,61820,192,40.110139,-88.229138,4.4,709 S. Wright St.$*$ Champaign$*$ IL 61820,17317830,0,1
264777,264777,a95563,b1692,Great Harvest Bread Co,Champaign,61820,14,40.08771574,-88.24789421,4.5,2149 S Neil St,0,1YqkSk2xorNWPOoieIMApQ,Great Harvest Bread Co.,Champaign,61820,56,40.0889,-88.2463,3.6,2149 S Neil St$*$ Champaign$*$ IL 61820,17317315,0,1
265856,265856,a103021,b1636,Old Chicago,Champaign,61820,51,40.139794,-88.243786,3,1910 N Neil St,0,TEXUVhF-G_v2Sxwqti8HQA,Old Chicago Pasta & Pizza,Champaign,61820,159,40.139362,-88.243863,3.9,1910 N Neil St$*$ Champaign$*$ IL 61820,17317825,0,1
266176,266176,a103578,b1691,Noodles & Company,Champaign,61820,37,40.1105017,-88.2306324,3,528 E Green,0,yE4k_CM9L0yPVVozyELfSQ,Noodles & Co,Champaign,61820,78,40.1104,-88.2316,3.6,528 E Green St$*$ Champaign$*$ IL 61820,17317741,0,1
266214,266214,a103579,b1662,Sushi Rock,Champaign,61820,42,40.1100643,-88.229494,3,621 E Green St,0,24UHe1SZ4cgm6u6bU_L6xA,Sushi Rock,Champaign,61820,87,40.110191,-88.230047,3.8,621 E. Green St$*$ Champaign$*$ IL 61820,17317801,0,1
268072,268072,a134697,b1685,Big Grove Tavern,Champaign,61820,248,40.1183809,-88.2429963,3.5,1 E Main St$*$ Ste 101,0,dn9lwYUxmhs_mLKPu7L25Q,Big Grove Tavern,Champaign,61820,107,40.1182345,-88.2435423,3.6,1 Main St$*$ Champaign$*$ IL 61820,17317963,0,1
268547,268547,a136363,b1626,Chipotle Mexican Grill,Champaign,61820,32,40.1361978,-88.2599453,3.5,903 W Anthony Dr$*$ Ste A,0,JbWQtVLQDEOBlvbVWk2OFg,Chipotle Mexican Grill,Champaign,61820,166,40.1104,-88.2316,4,528 E Green St$*$ Champaign$*$ IL 61820,17317260,0,1
268834,268834,a21283,b383,131 Main,Cornelius,28031,201,35.4577917,-80.8680906,4,17830 Statesville Rd,0,rmP7AzV3SAeRWUzbNuqQ5A,131 Main,Charlotte,28031,452,35.4572665,-80.8682139,4.1,17830 N Statesville Road$*$ Cornelius$*$ NC 28031,17149747,0,1
269537,269537,a126098,b330,Pho Nam,Cornelius,28031,78,35.4596028,-80.8889727,4,18059 W Catawba Ave,0,MhGezUHeUM_0qMMPGLAlCg,Pho Nam,Charlotte,28031,272,35.4592617,-80.8885843,4.4,18059 W Catawba Avenue Suite 5$*$ NC 28031,17149793,0,1
269625,269625,a130757,b363,Alton's Kitchen & Cocktails,Cornelius,28031,99,35.479225,-80.893923,4,Jetton Village$*$ 19918 N Cove Rd,0,DrJ6xjGcQJfMllS19S527Q,Alton's Kitchen & Cocktails,Charlotte,28031,371,35.479336,-80.894254,4.2,19918 N Cove Road$*$ Cornelius$*$ NC 28031,17149910,0,1
270346,270346,a29585,b573,Bell' Italia Pizzeria,Phoenix,85048,91,33.3039011,-111.9784087,4.5,4909 E Chandler Blvd$*$ Ste 506,0,EgwGTDZ705TwudPJwAY0yQ,Bell' Italia Pizzeria,Phoenix,85048,200,33.305063,-111.978013,4.1,4909 E Chandler Blvd$*$ Phoenix$*$ AZ 85048,17025304,0,1
271373,271373,a105792,b547,Pei Wok,Phoenix,85048,26,33.3048555,-112.0124975,4,3233 E Chandler Blvd$*$ Ste 6,0,nQVPgOqVrNIWhY3F5kS79g,Pei Wok,Phoenix,85048,265,33.304963,-112.013609,4.2,3233 E Chandler Blvd STE #6A$*$ Phoenix$*$ AZ 85048,17028431,0,1
271916,271916,a127844,b525,Pomegranate Cafe,Phoenix,85048,550,33.30372373,-111.9945369,4,4025 E Chandler Blvd$*$ Ste 28,0,QsJ6orXv_VB7xz-MpqHzSQ,Pomegranate Cafe,Phoenix,85048,413,33.304959,-111.996392,4.3,4025 East Chandler Boulevard$*$ Ahwatukee$*$ Phoenix$*$ AZ 85048,17031909,0,1
272156,272156,a132111,b530,Mr Chao's Asia Bistro,Phoenix,85048,63,33.305945,-111.99117,4,4232 E Chandler Blvd$*$ Ste 4,0,lEtpTFWetCf6xnzeImLiHg,Mr. Chao's Asia Bistro,Phoenix,85048,329,33.305437,-111.992074,4.3,4232 E Chandler Blvd$*$ Phoenix$*$ AZ 85048,17028003,0,1
272758,272758,a72857,b470,Villa Dolce,Middleton,53562,61,43.09562399,-89.51174488,4,1828 Parmenter St,0,CbI4IFtWCNm4rLvWr0veEw,Villa Dolce,Madison,53562,207,43.0956,-89.5117,4,1828 Parmenter St$*$ Middleton$*$ WI 53562,17502892,0,1
272907,272907,a82252,b429,Hubbard Avenue Diner,Middleton,53562,188,43.0951779,-89.510672,3.5,7445 Hubbard Ave,0,Ol4QM1QI5GlK36t2sGC7KA,Hubbard Avenue Diner,Madison,53562,562,43.095,-89.5098,4.2,7445 Hubbard Ave$*$ Middleton$*$ WI 53562,17502848,0,1
273119,273119,a90658,b478,Louisianne's,Middleton,53562,82,43.095616,-89.511021,4,7464 Hubbard Ave,0,uKfOtfZ5R1JGm5sybZmi2w,Louisianne's Etc,Madison,53562,156,43.0954,-89.5103,4,7464 Hubbard Ave$*$ Middleton$*$ WI 53562,17502851,0,1
273410,273410,a124015,b480,Bloom Bake Shop,Middleton,53562,113,43.0958054,-89.511793,4.5,1834 Parmenter St,0,_q0ci_oTC-QccjFKVc6CeA,Bloom Bake Shop,Madison,53562,178,43.095575,-89.511657,4,1834 Parmenter Street$*$ Middleton$*$ WI 53562,17503486,0,1
274144,274144,a47563,b1528,Noodlehead,Pittsburgh,15206,615,40.457748,-79.925494,4.5,242 S Highland Ave,0,dLc1d1zwd1Teu2QED5TmlA,Noodlehead,Pittsburgh,15206,638,40.4577353,-79.9252929,4.4,242 S. Highland Ave.$*$ Pittsburgh$*$ PA 15206,17042883,0,1
274967,274967,a105360,b1547,Casbah,Pittsburgh,15206,292,40.458138,-79.924797,4,229 S Highland Ave,0,TFdLM8R_7Pf1xVeBNKl0hg,Casbah,Pittsburgh,15206,1272,40.458396,-79.924951,4.3,229 S Highland Ave$*$ Pittsburgh$*$ PA 15206,17036150,0,1
274982,274982,a107721,b1511,Smiling Banana Leaf,Pittsburgh,15206,360,40.4758881,-79.9195636,4,5901 Bryant St,0,e2ng0CQ69anIawqIKzhtlg,Smiling Banana Leaf,Pittsburgh,15206,1223,40.475768,-79.919678,4.6,5901 Bryant St$*$ Pittsburgh$*$ PA 15206,17041212,0,1
275053,275053,a115144,b1505,Point Brugge Caf,Pittsburgh,15206,462,40.4500419,-79.9139009,4.5,401 Hastings St,0,xcmmTXhuMx2fZF2Bt69F4w,Point Brugge Cafe,Pittsburgh,15206,2253,40.450001,-79.91387,4.8,401 Hastings St$*$ Pittsburgh$*$ PA 15206,17037197,0,1
275352,275352,a136028,b1572,Pizza Perfectta,Pittsburgh,15206,85,40.4572561,-79.9253542,4,258 S Highland Ave,0,o47aY911-1rK9tHeXOWxFg,Pizza Perfectta,Pittsburgh,15206,546,40.458051,-79.925336,4.3,258 S Highland Ave$*$ Pittsburgh$*$ PA 15206,17037178,0,1
275391,275391,a143157,b1519,Park Bruges,Pittsburgh,15206,221,40.4761766,-79.9205243,4,5801 Bryant St,0,XItYW5ul3OW_AqpT2nDbBQ,Park Bruges,Pittsburgh,15206,905,40.476124,-79.920636,4.5,5801 Bryant St$*$ Pittsburgh$*$ PA 15206,17042177,0,1
275662,275662,a138432,b567,Sala Thai,Phoenix,85028,252,33.5856509,-112.0137434,4,10880 N 32nd St$*$ Ste 29,0,5DT2qxCkXxUKW7z_4kOXmA,Sala Thai,Phoenix,85028,271,33.585753,-112.013264,4.1,10880 N 32nd St$*$ Phoenix$*$ AZ 85028,17029031,0,1
276006,276006,a101593,b3570,Shinto Japanese Steakhouse & Sushi Bar,Strongsville,44136,128,41.293935,-81.835899,3.5,17070 Pearl Rd,0,2ALi7ZYvil-BAXFa3CMUyA,Shinto Japanese Steakhouse & Sushi Bar,Cleveland,44136,471,41.293781,-81.835382,4.2,17070 Pearl Rd$*$ Strongsville$*$ OH 44136,16962745,0,1
276467,276467,a53120,b1586,Central Diner & Grille,Pittsburgh,15205,314,40.4486993,-80.15681107,4,6408 Steubenville Pike,0,i39--wZD6L9hm9Lg90Uziw,Central Diner & Grille,Pittsburgh,15205,804,40.4487,-80.157009,4.2,6408 Steubenville Pike$*$ Pittsburgh$*$ PA 15205,17042702,0,1
277017,277017,a25056,b423,Salvatore's Tomato Pies,Sun Prairie,53590,204,43.1830287,-89.2128275,4.5,503 W Main St,0,VjaHHmV-rSkFaOAnU3faxg,Salvatore's Tomato Pies,Madison,53590,256,43.18294,-89.220311,4.3,503 W. Main St.$*$ Sun Prairie$*$ WI 53590,17503724,0,1
277075,277075,a35517,b423,Salvatore's Tomato Pies,Sun Prairie,53590,12,43.1830287,-89.2128275,4.5,121 E Main St,0,Gm---0O1y_4TAQAl5qKvqQ,Salvatore's Tomato Pies,Madison,53590,256,43.18294,-89.220311,4.3,503 W. Main St.$*$ Sun Prairie$*$ WI 53590,17503724,0,1
277282,277282,a122227,b484,Anna's Pizzeria,Sun Prairie,53590,16,43.1778077,-89.2403448,4.5,1609 W Main St,0,DcdjPu2wFoMp-G3K7PnYqQ,Anna's Pizzeria,Madison,53590,166,43.178,-89.2403,4,1609 W Main St$*$ Sun Prairie$*$ WI 53590,17503153,0,1
277808,277808,a68605,b572,Pino's Pizza Al Centro,Phoenix,85013,180,33.4802667,-112.0774945,4,139 W Thomas Rd,0,XeUm1QS078kgjwONhul0ng,Pino's Pizza Al Centro,Phoenix,85013,154,33.480163,-112.076365,4.1,139 West Thomas Road$*$ Midtown$*$ Phoenix$*$ AZ 85013,17028561,0,1
278232,278232,a103262,b589,Hana Japanese Eatery,Phoenix,85013,484,33.51737046,-112.0828243,4,5524 N 7th Ave,0,CUivTcULsu5MJIYYNVm1zw,Hana Japanese Eatery,Phoenix,85013,258,33.516867,-112.082594,4,5524 North 7th Avenue$*$ Midtown$*$ Phoenix$*$ AZ 85013,17026904,0,1
278602,278602,a2776,b2315,Lola's A Louisana Kitchen,Las Vegas,89102,811,36.158293,-115.1579886,4,241 W Charleston Blvd$*$ Ste 101,0,uWECX6-Uq9n8v5ipk9R29A,Lola's: A Louisiana Kitchen,Las Vegas,89102,856,36.158669,-115.156877,4.5,241 W Charleston Blvd Ste 101$*$ Las Vegas$*$ NV 89102,16981633,0,1
279533,279533,a43991,b2325,Hot N Juicy Crawfish,Las Vegas,89102,1400,36.12659258,-115.206306,4,4810 Spring Mountain Rd$*$ Ste C & D,0,UNI1agsPX2k3eJSJVB91nw,Hot N Juicy Crawfish,Las Vegas,89102,563,36.126421,-115.205844,4.4,4810 Spring Mountain Road$*$ Las Vegas$*$ NV 89102,16981028,0,1
280703,280703,a84720,b2325,Hot N Juicy Crawfish,Las Vegas,89102,579,36.12621721,-115.1913501,4,3863 Spring Mountain Rd,0,p3YqOYELqXtLyHz9T49p_w,Hot N Juicy Crawfish,Las Vegas,89102,563,36.126421,-115.205844,4.4,4810 Spring Mountain Road$*$ Las Vegas$*$ NV 89102,16981028,0,1
282428,282428,a50549,b1588,Alla Famiglia,Pittsburgh,15210,125,40.4216209,-79.9934384,4.5,804 E Warrington Ave,0,vNQkym5qZ-E-4AJ4IQ5JEg,Alla Famiglia,Pittsburgh,15210,717,40.421663,-79.993556,4.2,804 E Warrington Ave$*$ Pittsburgh$*$ PA 15210,17036156,0,1
282465,282465,a3050,b2387,China A Go Go,North Las Vegas,89031,66,36.2625247,-115.2066936,3.5,4780 W Ann Rd$*$ Ste 3,0,JOsBOphWK14yjq7FC1zL5w,China a Go Go,Las Vegas,89031,219,36.261737,-115.206793,4.2,4780 W Ann Rd$*$ North Las Vegas$*$ NV 89031,16977949,0,1
283265,283265,a98988,b2360,Lindo Michoacan,Las Vegas,89121,773,36.1293621,-115.1135114,4,2655 E Desert Inn Rd,0,Sovgwq-E-n6wLqNh3X_rXg,Lindo Michoacan,Las Vegas,89121,575,36.129159,-115.113318,4.2,2655 East Desert Inn Rd$*$ Las Vegas$*$ NV 89121,16979146,0,1
283716,283716,a57051,b582,Los Dos Molinos,Phoenix,85042,333,33.367178,-112.073681,3.5,8646 S Central Ave,0,46hnat0aLao-qYWZkN9aBg,Los Dos Molinos,Phoenix,85042,353,33.367364,-112.073363,4,8646 South Central Avenue$*$ Phoenix$*$ AZ 85042,17027644,0,1
283908,283908,a8526,b388,Maggiano's Little Italy,Charlotte,28211,235,35.15215702,-80.83026911,3.5,4400 Sharon Rd,0,AuIiqDeL65kczmiFSkAWrA,Maggiano's,Charlotte,28211,643,35.151246,-80.828827,4.1,4400 Sharon Road$*$ Charlotte$*$ NC 28211,17149629,0,1
283912,283912,a8548,b369,The Pizza Peel,Charlotte,28211,123,35.1766688,-80.7978683,4,4422 Colwick Rd,0,wkZ6P5fDw0G_iFRU-hzBhQ,Pizza Peel,Charlotte,28211,501,35.176826,-80.797741,4.2,4422 Colwick Road$*$ Charlotte$*$ NC 28211,17148528,0,1
284171,284171,a29091,b302,The Cowfish Sushi Burger Bar,Charlotte,28211,1123,35.15272484,-80.82795331,4,4310 Sharon Rd$*$ Ste X05,0,RAh9WCQAuocM7hYM5_6tnw,The Cowfish Sushi Burger Bar,Charlotte,28211,1712,35.152551,-80.827317,4.9,4310 Sharon Road$*$ Suite X05$*$ Charlotte$*$ NC 28211,17150127,0,1
284885,284885,a92306,b399,Yama Asian Fusion,Charlotte,28211,143,35.157032,-80.823983,4,720 Governor Morrison St$*$ Ste 130,0,K3iw26MkmSBPAM7BzHkIYQ,Yama Asian Fusion,Charlotte,28211,316,35.15,-80.82,4.1,720 Governor Morrison Street Suite 130$*$ Charlotte$*$ NC 28211,17148612,0,1
285525,285525,a74312,b377,Tony's Ice Cream Company,Gastonia,28054,79,35.2625498,-81.1732224,4.5,604 E Franklin Blvd,0,3JekfARgFuMeLTMcOpgqyQ,Tony's Ice Cream,Charlotte,28054,302,35.262436,-81.173182,4.2,604 E Franklin Boulevard$*$ Gastonia$*$ NC 28054,17148943,0,1
285612,285612,a5096,b358,Famous Toastery,Davidson,28036,181,35.4991952,-80.8487957,4,101 N Main St,0,8rtd2ZoeNMHjCQQnWuZ-bQ,Famous Toastery,Charlotte,28036,523,35.499177,-80.848772,4.2,101 N Main Street$*$ Davidson$*$ NC 28036,17149693,0,1
285613,285613,a5471,b343,Brickhouse Tavern,Davidson,28036,115,35.5038532,-80.848752,3.5,209 Delburg St,0,UXL5eg0e6W1AZzmX6NAXdg,Brickhouse,Charlotte,28036,525,35.503612,-80.847988,4.3,209 Delburg Street$*$ Davidson$*$ NC 28036,17149563,0,1
286255,286255,a71721,b1659,El Toro Bravo,Champaign,61821,34,40.11239098,-88.28981217,3,2561 W Springfield Ave,0,E8b-loa-89wsnJpu9ff_Gg,El Toro Bravo,Champaign,61821,92,40.112825,-88.289427,3.8,2561 W Springfield$*$ Champaign$*$ IL 61821,17317799,0,1
286333,286333,a78241,b1642,My Thai,Champaign,61821,78,40.11309996,-88.28589678,3.5,2312 W Springfield Ave,0,Frbldz6phswVyMNvwherhA,My Thai,Champaign,61821,171,40.113038,-88.284985,3.9,2312 W Springfield Ave$*$ Champaign$*$ IL 61821,17317880,0,1
286348,286348,a80749,b1618,Original Pancake House,Champaign,61821,159,40.112887,-88.278369,4,1909 W Springfield Ave$*$ Ste B,0,dIZcPB3CtNjMn4O_p8QFxw,Original Pancake House,Champaign,61821,206,40.1128,-88.2791,4.1,1909 W Springfield Ave$*$ Champaign$*$ IL 61821,17317399,0,1
286670,286670,a109925,b1666,Texas Roadhouse,Champaign,61821,74,40.117932,-88.2810949,3.5,204 N. Country Fair Dr,0,NSzhahVpI_B32snhJHM0HA,Texas Roadhouse,Champaign,61821,91,40.117619,-88.281588,3.7,204 N Country Fair Dr$*$ Champaign$*$ IL 61821,17317829,0,1
286745,286745,a115481,b1625,Thara Thai,Champaign,61821,160,40.1335532,-88.2602612,4,912 1/2 W Bloomington Rd,0,hvPPw19VdGRsOEkxgyD7tg,Thara Thai,Champaign,61821,164,40.1322,-88.2576,4,912 1/2 W Bloomington Rd$*$ Champaign$*$ IL 61821,17317480,0,1
286869,286869,a119367,b1672,Panera Bread,Champaign,61821,26,40.097838,-88.275366,2.5,1765 West Kirby Ave,0,S7TY9oCMqK-TffWrygetcw,Panera Bread,Champaign,61821,88,40.0981,-88.2757,3.7,1765 W Kirby Ave$*$ Champaign$*$ IL 61821,17317405,0,1
287198,287198,a128040,b1651,Sun Singer Wine and Spirits,Champaign,61821,78,40.0831838,-88.264391,4,1115 W Windsor Rd,0,O3zVw-VAcJi8ta4B6v5iAA,Sun Singer Wine Bar Cafe,Champaign,61821,97,40.083516,-88.264395,3.8,1115 W Windsor Rd.$*$ Champaign$*$ IL 61821,17317818,0,1
287358,287358,a139420,b1637,Li'l Porgy's Bbq,Champaign,61821,78,40.112421,-88.280002,3.5,1917 W Springfield Ave,0,4cPM1Hcj3UiN3fxyOsiR9w,Li'l Porgy's Bar-B-Q,Champaign,61821,155,40.1128,-88.2793,3.9,1917 W Springfield Ave$*$ Champaign$*$ IL 61821,17317362,0,1
287463,287463,a133955,b1923,The Stockbridge Restaurant,Edinburgh,EH3 5AL,14,55.9578322,-3.2065066,4,54 St Stephen Street,0,rSd9f8qvdg8KIf4ATqw-PA,The Stockbridge Restaurant,Edinburgh,EH3 5AL,54,55.957833,-3.206506,4.2,54 St Stephen Street$*$ Stockbridge$*$ Edinburgh EH3 5AL,7600987,0,1
288052,288052,a10909,b3600,Market at Flying Fig,Cleveland,44113,25,41.4841969,-81.704349,4,2523 Market Ave,0,s7SaLKwhfRXZqYY6NClLew,Flying Fig,Cleveland,44113,403,41.484352,-81.703931,4.1,2523 Market Ave$*$ Cleveland$*$ OH 44113,16960505,0,1
288765,288765,a33486,b3597,Blue Point Grille,Cleveland,44113,221,41.4996358,-81.6992359,4,700 W St Clair Ave$*$ Ste 200,0,Z1mLBp6BMlHSQUh364vk1g,Blue Point Grille,Cleveland,44113,525,41.499387,-81.699233,4.1,700 W Saint Clair Ave$*$ Cleveland$*$ OH 44113,16959319,0,1
289411,289411,a53164,b3503,Sokolowski's University Inn,Cleveland,44113,323,41.484752,-81.690048,4.5,1201 University Rd,0,Xny0n0s98TpP82sQxfgIMQ,Sokolowski's University Inn,Cleveland,44113,756,41.484872,-81.689752,4.8,1201 University Rd$*$ Cleveland$*$ OH 44113,16962806,0,1
290970,290970,a78680,b3539,The South Side,Cleveland,44113,253,41.482026,-81.688974,3.5,2207 W 11th St,0,HNs2Nf-trqFTDtho4vhfmA,South Side,Cleveland,44113,657,41.482073,-81.689202,4.3,2207 W 11th St$*$ Cleveland$*$ OH 44113,16962822,0,1
291016,291016,a78973,b3575,Ty Fun Thai Bistro,Cleveland,44113,116,41.479502,-81.6841614,4,815 Jefferson Ave,0,2JeciNHrJE_tI-o2tUCu5w,Ty Fun Thai Bistro,Cleveland,44113,365,41.47949,-81.68428,4.2,815 Jefferson Ave$*$ Cleveland$*$ OH 44113,16963161,0,1
291293,291293,a84669,b3546,Fat Cats,Cleveland,44113,144,41.4837798,-81.6875167,4,2061 W 10th St,0,ZRLmQ3oAuspAkk5R6BOfyg,Fat Cats,Cleveland,44113,498,41.4838,-81.687516,4.3,2061 W 10th St$*$ Cleveland$*$ OH 44113,16960439,0,1
291653,291653,a92008,b3509,Tremont Taphouse,Cleveland,44113,335,41.4771643,-81.6952657,4,2572 Scranton Rd,0,K6fYrrTorlpXmqutRcrHzg,Tremont Tap House,Cleveland,44113,1017,41.47693,-81.695262,4.6,2572 Scranton Rd$*$ Cleveland$*$ OH 44113,16963455,0,1
292247,292247,a101340,b3566,Le Petit Triangle Caf,Cleveland,44113,257,41.4831995,-81.7102123,4,1881 Fulton Rd,0,JezHN-9KKLTMbojq00VP0g,Le Petit Triangle Cafe,Cleveland,44113,391,41.483207,-81.710211,4.2,1881 Fulton Rd$*$ Cleveland$*$ OH 44113,16963453,0,1
292900,292900,a110787,b3520,Banana Blossom Thai Cuisine,Cleveland,44113,118,41.488907,-81.70905,4,2800 Clinton Ave,0,SGZAsdQAp0SjtMDjXWBPYw,Banana Blossom Thai Cuisine,Cleveland,44113,323,41.48884,-81.708997,4.5,2800 Clinton Ave$*$ Cleveland$*$ OH 44113,16964822,0,1
