,_id,l_ID,r_ID,l_name,l_city,l_zipcode,l_review_count,l_latitude,l_longitude,l_rating,l_address,l_zomato_id,l_yelp_id,r_name,r_city,r_zipcode,r_review_count,r_latitude,r_longitude,r_rating,r_address,r_zomato_id,r_yelp_id
30,30,a6387,b2383,Anthony & Marios Broadway Pizzeria,Las Vegas,89106,215,36.1617046,-115.1734184,4.0,840 S Rancho Dr,0,iL2-xJ4-eMsJk88PsbivbQ,Broadway Pizzeria,Las Vegas,89106,222,36.16105,-115.173014,4.2,840 South Rancho Drive$*$ Rancho Oakey$*$ Las Vegas$*$ NV 89106,16977660,0
480,480,a28523,b2373,The Cracked Egg,Henderson,89074,396,36.02840264,-115.0845215,3.5,1000 N Green Valley Pkwy$*$ Ste 480,0,At2bqa8emnEr5WNIosi0ow,The Cracked Egg,Las Vegas,89074,318,36.027749,-115.085723,4.2,1000 N Green Valley Parkway #480$*$ Henderson$*$ NV 89074,16981241,0
541,541,a41175,b2373,The Chicken Shack,Henderson,89074,29,36.02957118,-115.0626827,4.0,50 North Valle Verde Dr,0,1i2zvEyKaxoHX6CyR4WdrQ,The Cracked Egg,Las Vegas,89074,318,36.027749,-115.085723,4.2,1000 N Green Valley Parkway #480$*$ Henderson$*$ NV 89074,16981241,0
630,630,a61593,b2373,The Shake and Dog,Henderson,89074,7,36.0441924,-115.0466392,3.0,237 N Stephanie St,0,f4eUHYdkgfaOvi6rU-o7Kg,The Cracked Egg,Las Vegas,89074,318,36.027749,-115.085723,4.2,1000 N Green Valley Parkway #480$*$ Henderson$*$ NV 89074,16981241,0
1157,1157,a68958,b571,Ray's Pizza II,Phoenix,85085,11,33.79833,-112.0670204,3.0,515 E Carefree Hwy,0,vMh4madPU3qhNX7P7d8WGA,Sauce Pizza & Wine,Phoenix,85085,215,33.713052,-112.111734,4.0,2470 W Happy Valley Rd$*$ Phoenix$*$ AZ 85085,17030169,0
1204,1204,a120029,b571,Sauce Pizza & Wine,Phoenix,85085,159,33.7151321,-112.1130676,3.5,2470 W Happy Valley Rd,0,8J55FMsOXei4Xh1jHSpElw,Sauce Pizza & Wine,Phoenix,85085,215,33.713052,-112.111734,4.0,2470 W Happy Valley Rd$*$ Phoenix$*$ AZ 85085,17030169,0
1327,1327,a88298,b362,Firebirds Wood Fired Grill,Charlotte,28216,110,35.352549,-80.851181,4.0,6801 Northlake Mall Dr,0,qVVjbYR0LIfJuIIzgPMTuw,Firebirds Wood Fired Grill,Charlotte,28216,423,35.349937,-80.850339,4.2,6801 Northlake Mall Drive$*$ Charlotte$*$ NC 28216,17147235,0
1464,1464,a46401,b425,Bonfyre American Grille,Madison,53713,179,43.03473537,-89.42256114,3.5,2601 W Beltline Hwy,0,2YlUn3s132hNq5ueGeIiJg,Bonfyre American Grille,Madison,53713,575,43.034786,-89.42118,4.2,2601 West Beltline Highway$*$ Madison$*$ WI 53713,17503464,0
1486,1486,a53500,b425,Bourbon Street Grille,Madison,53713,35,43.0490272,-89.3370562,2.5,6308 Metropolitan Ln,0,rIgbi8lCr85UIKSQDVetZw,Bonfyre American Grille,Madison,53713,575,43.034786,-89.42118,4.2,2601 West Beltline Highway$*$ Madison$*$ WI 53713,17503464,0
1497,1497,a61863,b425,Jalapeo Mexican Grill,Madison,53713,7,43.0470342,-89.3939631,4.0,1821 S Park St,0,7CD4qTysNB-lis85QFS8Tg,Bonfyre American Grille,Madison,53713,575,43.034786,-89.42118,4.2,2601 West Beltline Highway$*$ Madison$*$ WI 53713,17503464,0
1619,1619,a4057,b3523,Luna Bakery Cafe,Cleveland,44106,207,41.5005333,-81.5921431,4.0,2482 Fairmount Blvd,0,Kuv-QSWUtOm5IjAxcFMl8A,Presti's Bakery & Caf,Cleveland,44106,544,41.508837,-81.598206,4.4,12101 Mayfield Rd$*$ Cleveland$*$ OH 44106,16962390,0
1937,1937,a81183,b3523,Presti's Bakery,Cleveland,44106,235,41.5088666,-81.598344,4.0,12101 Mayfield Rd,0,orrrhqRRUORIzUSxWTveKg,Presti's Bakery & Caf,Cleveland,44106,544,41.508837,-81.598206,4.4,12101 Mayfield Rd$*$ Cleveland$*$ OH 44106,16962390,0
2028,2028,a106870,b3561,Trattoria Roman Gardens,Cleveland,44106,137,41.5088723,-81.5977166,3.5,12207 Mayfield Rd,0,nIJr76IGIGS3nkmieY3Vow,Trattoria on the Hill,Cleveland,44106,795,41.508837,-81.59765,4.2,12207 Mayfield Rd$*$ Cleveland$*$ OH 44106,16963129,0
2039,2039,a113205,b3523,Corbo's Bakery,Cleveland,44106,86,41.508464,-81.5975637,4.5,12210 Mayfield Rd,0,ssyjN-SqT2O8jlC8IvrH-w,Presti's Bakery & Caf,Cleveland,44106,544,41.508837,-81.598206,4.4,12101 Mayfield Rd$*$ Cleveland$*$ OH 44106,16962390,0
2059,2059,a117289,b3515,L'Albatros,Cleveland,44106,468,41.51174396,-81.60639534,4.5,11401 Bellflower Rd,0,SzcCJJmreMlWCsNjupdVAA,L'Albatros,Cleveland,44106,884,41.5115,-81.605604,4.5,11401 Bellflower Rd$*$ Cleveland$*$ OH 44106,16964270,0
2377,2377,a53240,b2349,KoMex Fusion,Las Vegas,89107,1128,36.179939,-115.206417,4.5,633 N Decatur Blvd$*$ Ste H,0,zdE82PiD6wquvjYLyhOJNA,KoMex Fusion,Las Vegas,89107,195,36.179453,-115.20635,4.3,633 N Decatur Blvd Ste H$*$ Las Vegas$*$ NV 89107,16982239,0
2936,2936,a68380,b396,Flying Saucer Draught Emporium,Charlotte,28262,196,35.31669443,-80.7405518,4.0,9605 N Tryon St$*$ Ste A,0,gOOdzjVxP7Z7bGjsstRjcw,The Flying Saucer Draught Emporium,Charlotte,28262,446,35.316954,-80.738968,4.1,Terraces At University Place$*$ 9605 N Tryon Street Suite A$*$ Charlotte$*$ NC 28262,17147264,0
2991,2991,a77320,b304,Hibachi Express,Charlotte,28262,5,35.297087,-80.755382,3.0,7945 N Tryon St$*$ Ste 100,0,UITPqkoDytnHT4kxaAyDeA,Toyama Express,Charlotte,28262,560,35.337772,-80.756986,4.7,2130 E Arbors Drive$*$ Charlotte$*$ NC 28262,17148399,0
3019,3019,a82170,b304,Kangaroo Express,Charlotte,28262,4,35.2943421,-80.7559499,3.0,7747 N Tryon St,0,Z6SE95jGCdiAJkpQ0jqjXg,Toyama Express,Charlotte,28262,560,35.337772,-80.756986,4.7,2130 E Arbors Drive$*$ Charlotte$*$ NC 28262,17148399,0
3161,3161,a115302,b304,Teriyaki Madness,Charlotte,28262,16,35.3402728,-80.7649282,3.5,2700 West Mallard Creek Church Rd$*$ Ste 420,0,SYJq8ydGY9oStzpVuHu3uw,Toyama Express,Charlotte,28262,560,35.337772,-80.756986,4.7,2130 E Arbors Drive$*$ Charlotte$*$ NC 28262,17148399,0
3277,3277,a1510,b378,Tony's Pizza,Huntersville,28078,81,35.357556,-80.868144,4.0,9548 Mt Holly Huntersville Rd,0,fOKeVUHC7nb6c8G5sILdHQ,Tony's Pizza,Charlotte,28078,237,35.357386,-80.868146,4.2,9548 Mount Holly-Huntersville Road$*$ Charlotte$*$ NC 28078,17148387,0
3528,3528,a19525,b376,Barrel Burgers,Huntersville,28078,14,35.44371258,-80.8713528,3.0,9133 Sam Furr Rd,0,XVCWCbVLq8LjDqQBLRoEcg,Bagel Bin,Charlotte,28078,229,35.442068,-80.861476,4.2,Northcross$*$ 9815 Sam Furr Road Suite I$*$ NC 28078,17146715,0
3541,3541,a19605,b378,Domino's Pizza,Huntersville,28078,7,35.408297,-80.860973,4.0,12905 Rosedale Hill Ave,0,qhJ6RP2x6DvEAzZaUP0HWg,Tony's Pizza,Charlotte,28078,237,35.357386,-80.868146,4.2,9548 Mount Holly-Huntersville Road$*$ Charlotte$*$ NC 28078,17148387,0
3556,3556,a19751,b344,Kilwins,Huntersville,28078,44,35.44592444,-80.878584,4.5,16926 Birkdale Commons Pkwy$*$ Ste A,0,ST_MJ4xq1GYSoc3LfgMFnQ,Killingtons,Charlotte,28078,638,35.409011,-80.860859,4.3,10010 Rose Commons Dr$*$ Huntersville$*$ NC 28078,17148631,0
3865,3865,a32446,b378,Rocky's Pizza,Huntersville,28078,69,35.4112378,-80.8559475,4.0,10310 Wilmington Rd,0,xJ94FRxbFwkmpi1hjuWlaw,Tony's Pizza,Charlotte,28078,237,35.357386,-80.868146,4.2,9548 Mount Holly-Huntersville Road$*$ Charlotte$*$ NC 28078,17148387,0
4041,4041,a40475,b326,Mandarin Chinese Restaurant,Huntersville,28078,33,35.3568505,-80.86880474,4.0,9548 Mt Holly Hntrsvlle Rd,0,At3bSltMX8mrBWAHL9s-HA,La Unica Mexican Restaurant,Charlotte,28078,471,35.436652,-80.870662,4.4,16203 Northcross Drive$*$ Huntersville$*$ Charlotte$*$ NC 28078,17149565,0
4051,4051,a40842,b378,Jet's Pizza,Huntersville,28078,33,35.4089724,-80.8630611,4.0,14316 Reese Blvd W,0,3_2H8ecCi3c3Azk8t557tw,Tony's Pizza,Charlotte,28078,237,35.357386,-80.868146,4.2,9548 Mount Holly-Huntersville Road$*$ Charlotte$*$ NC 28078,17148387,0
4129,4129,a41818,b378,Papa John's Pizza,Huntersville,28078,6,35.436211,-80.865706,2.5,16235 Statesville Rd,0,bxsc4cJFKHCBO64k20kCOA,Tony's Pizza,Charlotte,28078,237,35.357386,-80.868146,4.2,9548 Mount Holly-Huntersville Road$*$ Charlotte$*$ NC 28078,17148387,0
4141,4141,a42232,b378,Donatos Pizzeria,Huntersville,28078,4,35.443106,-80.859585,2.5,10109 Northcross Center Ct,0,Fbodyr3N_oJIT90qXdAqGQ,Tony's Pizza,Charlotte,28078,237,35.357386,-80.868146,4.2,9548 Mount Holly-Huntersville Road$*$ Charlotte$*$ NC 28078,17148387,0
4185,4185,a43272,b326,Loco Lime Mexican Grill,Huntersville,28078,21,35.384346,-80.786208,3.0,13016 Eastfield Rd,0,ujUW_oXhTsdPqSTFK1sdZg,La Unica Mexican Restaurant,Charlotte,28078,471,35.436652,-80.870662,4.4,16203 Northcross Drive$*$ Huntersville$*$ Charlotte$*$ NC 28078,17149565,0
4233,4233,a45328,b326,Taxco Mexican Grill,Huntersville,28078,36,35.4437229,-80.8645502,3.5,9719 Sam Furr Rd$*$ Ste E,0,NAkuhaIe02ucJ34_BNvXYw,La Unica Mexican Restaurant,Charlotte,28078,471,35.436652,-80.870662,4.4,16203 Northcross Drive$*$ Huntersville$*$ Charlotte$*$ NC 28078,17149565,0
4527,4527,a51572,b326,Dressler's Restaurant,Huntersville,28078,98,35.446135,-80.879821,4.0,8630-1A Lindholm Dr,0,Aw3YYxmIbt-LTtjrNWouHA,La Unica Mexican Restaurant,Charlotte,28078,471,35.436652,-80.870662,4.4,16203 Northcross Drive$*$ Huntersville$*$ Charlotte$*$ NC 28078,17149565,0
4620,4620,a58949,b376,Bagel Bin,Huntersville,28078,57,35.442525,-80.861123,3.5,9815 Sam Furr Rd$*$ Ste I,0,VVdbPZs0M6d_X5XdgyAhig,Bagel Bin,Charlotte,28078,229,35.442068,-80.861476,4.2,Northcross$*$ 9815 Sam Furr Road Suite I$*$ NC 28078,17146715,0
4777,4777,a66325,b378,Marco's Pizza,Huntersville,28078,26,35.383842,-80.78614,3.5,13024 Eastfield Rd,0,Q4LgYiMBZze8fw6t3kb91Q,Tony's Pizza,Charlotte,28078,237,35.357386,-80.868146,4.2,9548 Mount Holly-Huntersville Road$*$ Charlotte$*$ NC 28078,17148387,0
4800,4800,a68752,b376,Burger King,Huntersville,28078,5,35.442844,-80.866318,2.0,16800 Caldwell Creek Dr,0,_Bt0--KxX5A1uhM0gfIjPQ,Bagel Bin,Charlotte,28078,229,35.442068,-80.861476,4.2,Northcross$*$ 9815 Sam Furr Road Suite I$*$ NC 28078,17146715,0
5067,5067,a83282,b326,Friendly's Family Restaurant,Huntersville,28078,4,35.409145,-80.860164,2.0,14220 Oak Hill Park Ln,0,DFtVgI6KrS6dcWQXXglCgg,La Unica Mexican Restaurant,Charlotte,28078,471,35.436652,-80.870662,4.4,16203 Northcross Drive$*$ Huntersville$*$ Charlotte$*$ NC 28078,17149565,0
5125,5125,a85089,b378,Cici's Pizza,Huntersville,28078,5,35.407291,-80.86335,3.5,14205 Reese Blvd W,0,nyas2dfdi599-Ej_uggd9g,Tony's Pizza,Charlotte,28078,237,35.357386,-80.868146,4.2,9548 Mount Holly-Huntersville Road$*$ Charlotte$*$ NC 28078,17148387,0
5187,5187,a92700,b326,La Unica Mexican Restaurant,Huntersville,28078,90,35.43660607,-80.8706376,3.5,16203 Northcross Dr,0,jR_p2I8h6w5lpf6GWk9Dzg,La Unica Mexican Restaurant,Charlotte,28078,471,35.436652,-80.870662,4.4,16203 Northcross Drive$*$ Huntersville$*$ Charlotte$*$ NC 28078,17149565,0
5226,5226,a97065,b376,Pane e Vino,Huntersville,28078,3,35.384346,-80.786208,1.5,13016 Eastfield Rd.,0,qL7CJ_9G9hi3ZESEHGlvNQ,Bagel Bin,Charlotte,28078,229,35.442068,-80.861476,4.2,Northcross$*$ 9815 Sam Furr Road Suite I$*$ NC 28078,17146715,0
5337,5337,a104781,b326,Huntersville Family Restaurant,Huntersville,28078,28,35.41404,-80.85258,4.0,105 North Statesville Rd$*$ Ste J,0,Cm7PADnhAzW5R2fQPuelEQ,La Unica Mexican Restaurant,Charlotte,28078,471,35.436652,-80.870662,4.4,16203 Northcross Drive$*$ Huntersville$*$ Charlotte$*$ NC 28078,17149565,0
5421,5421,a106035,b326,Antico Italian Restaurant,Huntersville,28078,38,35.4437229,-80.8645502,4.5,9719 Sam Furr Rd$*$ Unit C,0,JsRt9LPgv-7guVcY4u6OQA,La Unica Mexican Restaurant,Charlotte,28078,471,35.436652,-80.870662,4.4,16203 Northcross Drive$*$ Huntersville$*$ Charlotte$*$ NC 28078,17149565,0
5581,5581,a108673,b378,Mama's Pizza Express,Huntersville,28078,46,35.4045977,-80.8413535,4.0,500 S Old Statesville Rd,0,mULK9fWh8kU4_vQYkd9ntA,Tony's Pizza,Charlotte,28078,237,35.357386,-80.868146,4.2,9548 Mount Holly-Huntersville Road$*$ Charlotte$*$ NC 28078,17148387,0
5644,5644,a111882,b344,Williams-Sonoma,Huntersville,28078,9,35.4445382,-80.8810328,3.0,16740 Birkdale Cmns Pkwy,0,J4ARg32Ux73UXz3RPpLaMg,Killingtons,Charlotte,28078,638,35.409011,-80.860859,4.3,10010 Rose Commons Dr$*$ Huntersville$*$ NC 28078,17148631,0
5664,5664,a112293,b376,Black Lion,Huntersville,28078,4,35.44482,-80.861954,4.0,9751 Sam Furr Rd,0,DNowFzgG7emP0ika9U2OkQ,Bagel Bin,Charlotte,28078,229,35.442068,-80.861476,4.2,Northcross$*$ 9815 Sam Furr Road Suite I$*$ NC 28078,17146715,0
6429,6429,a29103,b521,The Henna Place,Glendale,85308,14,33.6420951,-112.2256801,5.0,7700 W Arrowhead Towne Ctr$*$ Ste 1106,0,quNsF2gdqKulu5D6pvZI0w,Mike & Ronda's The Place,Phoenix,85308,357,33.638777,-112.170874,4.3,5171 West Bell Road$*$ Deer Valley$*$ Phoenix$*$ AZ 85308,17027928,0
6882,6882,a52081,b527,Yellowtail Sushi & Steak,Glendale,85308,163,33.6464133,-112.2365732,4.0,18255 N 83rd Ave$*$ Ste B 113,0,XqRY9T8s0JhdehfSmXhCxw,Yen Sushi & Sake Bar,Phoenix,85308,238,33.639965,-112.15165,4.3,17037 North 43rd Avenue #A3$*$ Deer Valley$*$ Phoenix$*$ AZ 85308,17030919,0
6953,6953,a57911,b521,Mike and Ronda's The Place,Glendale,85308,406,33.63867334,-112.1709838,4.0,5171 W Bell Rd,0,fOnpoMXToa5Qiyg95E6ENg,Mike & Ronda's The Place,Phoenix,85308,357,33.638777,-112.170874,4.3,5171 West Bell Road$*$ Deer Valley$*$ Phoenix$*$ AZ 85308,17027928,0
7186,7186,a75661,b527,Yen Sushi & Sake Bar,Phoenix,85308,380,33.640832,-112.151282,4.0,17037 N 43rd Ave,0,LtNgP4FqXp5nMFOHErK8cw,Yen Sushi & Sake Bar,Phoenix,85308,238,33.639965,-112.15165,4.3,17037 North 43rd Avenue #A3$*$ Deer Valley$*$ Phoenix$*$ AZ 85308,17030919,0
7476,7476,a90241,b527,M Sushi Bar,Glendale,85308,60,33.65240487,-112.185529,4.0,18555 N 59th Ave$*$ Ste 124,0,b31CVkPRlnYVjK0RgTAPWA,Yen Sushi & Sake Bar,Phoenix,85308,238,33.639965,-112.15165,4.3,17037 North 43rd Avenue #A3$*$ Deer Valley$*$ Phoenix$*$ AZ 85308,17030919,0
8134,8134,a131209,b527,Sushi Catcher,Glendale,85308,319,33.63921606,-112.1959626,4.0,6334 W Bell Rd,0,gcNC4k7TZJVX_1YHdIkDNQ,Yen Sushi & Sake Bar,Phoenix,85308,238,33.639965,-112.15165,4.3,17037 North 43rd Avenue #A3$*$ Deer Valley$*$ Phoenix$*$ AZ 85308,17030919,0
8446,8446,a15284,b334,Greco Fresh Grille,Charlotte,28277,153,35.0346645,-80.8057671,4.5,9820 E Rea Rd,0,H-PmFfqAzQtWTS0XeWC_lw,Firebirds Wood Fired Grill,Charlotte,28277,1271,35.0620547,-80.815844,4.3,7716 Rea Road$*$ Charlotte$*$ NC 28277,17147236,0
8704,8704,a22465,b334,Firebirds Wood Fired Grill,Charlotte,28277,226,35.0620547,-80.815844,4.0,7716 Rea Rd,0,npWIa3dIPEV1MTaZNq6AUA,Firebirds Wood Fired Grill,Charlotte,28277,1271,35.0620547,-80.815844,4.3,7716 Rea Road$*$ Charlotte$*$ NC 28277,17147236,0
8940,8940,a31300,b366,Cajun Yard Dog,Charlotte,28277,194,35.0971238,-80.78056097,4.0,8036 Providence Rd$*$ Ste 900,0,KbLI0QELlAwbfDUVwo43DQ,Cajun Yard Dog,Charlotte,28277,471,35.098556,-80.778609,4.2,8036 Providence Road$*$ Suite 900$*$ Charlotte$*$ NC 28277,17146864,0
9379,9379,a41637,b374,Zeitouni Grill,Charlotte,28277,178,35.06862,-80.842617,4.0,3419 Toringdon Way$*$ Ste A-124,0,ExtP8z3SVyut_RICc9i_DA,Zeitouni,Charlotte,28277,274,35.068638,-80.842915,4.2,3419 Toringdon Way Suite 124$*$ Charlotte$*$ NC 28277,17150451,0
11074,11074,a102942,b334,Brixx Wood Fired Pizza,Charlotte,28277,64,35.03456151,-80.80586756,3.5,Blakeney Shopping Center$*$ 9820-F Rea Rd,0,Eqd5QGaW7_C-qHNGzs1uUg,Firebirds Wood Fired Grill,Charlotte,28277,1271,35.0620547,-80.815844,4.3,7716 Rea Road$*$ Charlotte$*$ NC 28277,17147236,0
11357,11357,a110655,b356,131 Main,Charlotte,28277,217,35.0340918,-80.8089294,4.0,9886 Rea Rd,0,110iMPMPEEjFlf8HKVq84g,131 Main,Charlotte,28277,594,35.034243,-80.805375,4.2,9886 Rea Road$*$ Charlotte$*$ NC 28277,17148614,0
11578,11578,a114082,b334,Persis Indian Grill,Charlotte,28277,127,35.05610275,-80.85411835,3.5,14027 Conlan Cir$*$ Ste A-1,0,YCq8VGDRHO3JkiyUzQbyIw,Firebirds Wood Fired Grill,Charlotte,28277,1271,35.0620547,-80.815844,4.3,7716 Rea Road$*$ Charlotte$*$ NC 28277,17147236,0
11882,11882,a120276,b390,Ilios Noche,Charlotte,28277,195,35.05321461,-80.77040053,4.0,11508 Providence Rd,0,c-l4nDPZcEwapEiV-Xf08w,Ilios Noche,Charlotte,28277,695,35.054023,-80.769803,4.1,11508 Providence Road$*$ Suite I$*$ Charlotte$*$ NC 28277,17147444,0
12099,12099,a130997,b314,Bad Daddy's Burger Bar,Charlotte,28277,248,35.05277023,-80.84741245,4.0,15105 John J Delaney Dr$*$ Ste A,0,YXa0A7aXV9wWNR0qJVVSDg,Bad Daddy's,Charlotte,28277,865,35.0537776,-80.8467812,4.5,15105 John J Delaney Drive$*$ Charlotte$*$ NC 28277,17149790,0
12473,12473,a6428,b503,Cibo,Phoenix,85003,1457,33.45496,-112.079908,4.5,603 N 5th Ave,0,9a3DrZvpYxVs3k_qwlCNSw,Cibo,Phoenix,85003,1062,33.454891,-112.080035,4.7,603 North 5th Avenue$*$ Downtown$*$ Phoenix$*$ AZ 85003,17025909,0
12726,12726,a70976,b532,Hertz,Phoenix,85003,17,33.6207359,-111.9167904,2.0,14600 N Airport Dr,0,NiOVdse6j_fAuwFbMWE0bQ,Fez,Phoenix,85003,593,33.4596909,-112.0743181,4.2,105 West Portland Street$*$ Midtown$*$ Phoenix$*$ AZ 85003,17026527,0
13346,13346,a50,b307,Nan and Byron's,Charlotte,28203,291,35.212521,-80.857639,3.5,1714 S Blvd,0,LIvXzdMJrIb6IY5Y3tqicA,Bad Daddy's,Charlotte,28203,1363,35.199007,-80.8408317,4.6,1626 East Boulevard$*$ Charlotte$*$ NC 28203,17148552,0
13593,13593,a4718,b392,Sullivan's Steakhouse,Charlotte,28203,185,35.2102729,-80.8600584,4.0,1928 South Blvd$*$ Ste 200,0,UByM7N0mF-ylIGUuIWHCtA,Sullivan's Steakhouse,Charlotte,28203,486,35.210526,-80.859246,4.1,1928 South Boulevard$*$ Charlotte$*$ NC 28203,17148288,0
13674,13674,a6254,b397,Thai Thai Takeout,Charlotte,28203,90,35.1999856,-80.844183,3.5,1412-C East Blvd,0,EPBEz9ifFo6JqPUUH_BdMg,Thai Taste,Charlotte,28203,459,35.210508,-80.856277,4.1,324 East Boulevard$*$ Dilworth$*$ Charlotte$*$ NC 28203,17148369,0
13688,13688,a6316,b312,Price's Chicken Coop,Charlotte,28203,302,35.2143631,-80.8575705,4.0,1614 Camden Rd,0,_5UAFrD3EDgJO1aZgRxH7w,Price's Chicken Coop,Charlotte,28203,1093,35.214563,-80.857329,4.5,1614 Camden Road$*$ Charlotte$*$ NC 28203,17147994,0
13690,13690,a6316,b333,Price's Chicken Coop,Charlotte,28203,302,35.2143631,-80.8575705,4.0,1614 Camden Rd,0,_5UAFrD3EDgJO1aZgRxH7w,Mac's Speed Shop,Charlotte,28203,1673,35.202942,-80.864358,4.3,2511 South Boulevard$*$ Charlotte$*$ NC 28203,17147666,0
13739,13739,a7139,b332,Sauceman's,Charlotte,28203,201,35.21395777,-80.8612243,4.0,228 W Blvd,0,ny8YcGEViSGKWxo69xfiiA,Ru Sans,Charlotte,28203,1182,35.197861,-80.851802,4.3,2440 Park Road$*$ Charlotte$*$ NC 28203,17148099,0
13943,13943,a10409,b392,Outback Steakhouse,Charlotte,28203,45,35.200356,-80.8435928,3.0,1412 East Blvd$*$ Ste A,0,G8WVrozcBBKZozhU7Gf6zA,Sullivan's Steakhouse,Charlotte,28203,486,35.210526,-80.859246,4.1,1928 South Boulevard$*$ Charlotte$*$ NC 28203,17148288,0
14185,14185,a18658,b400,Fidelli Kitchen,Charlotte,28203,11,35.2142559,-80.857754,4.5,1616 Camden Rd$*$ Ste 100,0,tdo6JvAKwmMAKU8T5jfORw,Luna's Living Kitchen,Charlotte,28203,244,35.208548,-80.86153,4.1,2102 South Boulevard$*$ Suite 300$*$ Charlotte$*$ NC 28203,17150072,0
14579,14579,a25978,b332,Shu Salon,Charlotte,28203,3,35.216533,-80.856083,3.5,1426 S Tryon St,0,v-bEPfF6jdrTOfvsnrb4xA,Ru Sans,Charlotte,28203,1182,35.197861,-80.851802,4.3,2440 Park Road$*$ Charlotte$*$ NC 28203,17148099,0
14761,14761,a27676,b336,1100 South,Charlotte,28203,7,35.2177876,-80.8505244,3.5,1100 South Blvd,0,yEWw0xIYQ_CCikn9Ob480A,300 East,Charlotte,28203,617,35.210862,-80.856527,4.3,300 East Boulevard$*$ Charlotte$*$ NC 28203,17146635,0
15031,15031,a30335,b336,Thai Taste,Charlotte,28203,220,35.210017,-80.855878,3.5,324 East Blvd,0,aIJqDWUt10iS45zYCr0KcQ,300 East,Charlotte,28203,617,35.210862,-80.856527,4.3,300 East Boulevard$*$ Charlotte$*$ NC 28203,17146635,0
15034,15034,a30335,b397,Thai Taste,Charlotte,28203,220,35.210017,-80.855878,3.5,324 East Blvd,0,aIJqDWUt10iS45zYCr0KcQ,Thai Taste,Charlotte,28203,459,35.210508,-80.856277,4.1,324 East Boulevard$*$ Dilworth$*$ Charlotte$*$ NC 28203,17148369,0
15969,15969,a44645,b332,Ru San's,Charlotte,28203,381,35.19773768,-80.85271905,3.5,2440 Park Rd,0,osSwv6CJy5hDKQdOKeyTow,Ru Sans,Charlotte,28203,1182,35.197861,-80.851802,4.3,2440 Park Road$*$ Charlotte$*$ NC 28203,17148099,0
16143,16143,a48161,b392,South End Fieldhouse,Charlotte,28203,3,35.2205488,-80.8583586,4.5,1327 S Mint St,0,JS_SUNjiwXvkzCz-QVMGCQ,Sullivan's Steakhouse,Charlotte,28203,486,35.210526,-80.859246,4.1,1928 South Boulevard$*$ Charlotte$*$ NC 28203,17148288,0
16246,16246,a51824,b307,Boardwalk Billy's,Charlotte,28203,10,35.209084,-80.857952,3.0,1514 E Blvd,0,hd4DGQ3rZkg2lzw4x4D-5A,Bad Daddy's,Charlotte,28203,1363,35.199007,-80.8408317,4.6,1626 East Boulevard$*$ Charlotte$*$ NC 28203,17148552,0
16308,16308,a52452,b312,Pike's Old Fashioned Soda Shop,Charlotte,28203,230,35.2109878,-80.861,3.5,1930 Camden Rd,0,NbrXg59fYR3MoeXdeAIQIQ,Price's Chicken Coop,Charlotte,28203,1093,35.214563,-80.857329,4.5,1614 Camden Road$*$ Charlotte$*$ NC 28203,17147994,0
16477,16477,a57198,b308,Lowe's,Charlotte,28203,48,35.2055386,-80.8605669,3.5,217 Iverson Way,0,qrPbFiwRT5F_4HLHZVL26Q,Pike's,Charlotte,28203,1056,35.211284,-80.86008,4.6,1930 Camden Road$*$ Charlotte$*$ NC 28203,17147968,0
16530,16530,a58911,b333,Hops and Shops,Charlotte,28203,3,35.2084339,-80.861273,4.5,2000-2104 South Blvd,0,ItQMDgwz39QVvyWJFywPrA,Mac's Speed Shop,Charlotte,28203,1673,35.202942,-80.864358,4.3,2511 South Boulevard$*$ Charlotte$*$ NC 28203,17147666,0
16560,16560,a59886,b333,Savory Spice Shop,Charlotte,28203,75,35.20917125,-80.86025189,4.5,2000 S Blvd$*$ Ste 150,0,NRFKiCg_6WJtuGpfb9dxVw,Mac's Speed Shop,Charlotte,28203,1673,35.202942,-80.864358,4.3,2511 South Boulevard$*$ Charlotte$*$ NC 28203,17147666,0
16636,16636,a63958,b307,Bad Daddy's Burger Bar,Charlotte,28203,386,35.199097,-80.840805,4.0,1626 East Blvd,0,yWUBX9Pe6pzh1PjVj04UmQ,Bad Daddy's,Charlotte,28203,1363,35.199007,-80.8408317,4.6,1626 East Boulevard$*$ Charlotte$*$ NC 28203,17148552,0
16838,16838,a70509,b312,Princess Cleaners,Charlotte,28203,5,35.199832,-80.844795,3.0,1408 East Blvd$*$ Ste AA,0,R7cw5ANdIw-0LGmhXVbhzA,Price's Chicken Coop,Charlotte,28203,1093,35.214563,-80.857329,4.5,1614 Camden Road$*$ Charlotte$*$ NC 28203,17147994,0
17065,17065,a79618,b400,Fran's Filling Station,Charlotte,28203,158,35.197631,-80.852124,4.0,2410 Park Rd,0,bcTeQtSdHW5pyLjXz05QEg,Luna's Living Kitchen,Charlotte,28203,244,35.208548,-80.86153,4.1,2102 South Boulevard$*$ Suite 300$*$ Charlotte$*$ NC 28203,17150072,0
17094,17094,a79948,b397,Famous Toastery,Charlotte,28203,220,35.1985012,-80.85265,3.5,2400 Park Rd,0,WvC9K0ZEOTbR7fh-LNe5_A,Thai Taste,Charlotte,28203,459,35.210508,-80.856277,4.1,324 East Boulevard$*$ Dilworth$*$ Charlotte$*$ NC 28203,17148369,0
17308,17308,a84256,b312,Mac's Speed Shop,Charlotte,28203,68,35.2029595,-80.8643709,4.0,2511 S Blvd,0,FSB3Jb4t11KkMyEi_7-s6Q,Price's Chicken Coop,Charlotte,28203,1093,35.214563,-80.857329,4.5,1614 Camden Road$*$ Charlotte$*$ NC 28203,17147994,0
17310,17310,a84256,b333,Mac's Speed Shop,Charlotte,28203,68,35.2029595,-80.8643709,4.0,2511 S Blvd,0,FSB3Jb4t11KkMyEi_7-s6Q,Mac's Speed Shop,Charlotte,28203,1673,35.202942,-80.864358,4.3,2511 South Boulevard$*$ Charlotte$*$ NC 28203,17147666,0
17341,17341,a84964,b336,Vin Master,Charlotte,28203,45,35.2092517,-80.86097941,4.5,2000 S Blvd$*$ Ste 610,0,_ABVTPkUnbCWgBmakmKXMw,300 East,Charlotte,28203,617,35.210862,-80.856527,4.3,300 East Boulevard$*$ Charlotte$*$ NC 28203,17146635,0
17344,17344,a84964,b397,Vin Master,Charlotte,28203,45,35.2092517,-80.86097941,4.5,2000 S Blvd$*$ Ste 610,0,_ABVTPkUnbCWgBmakmKXMw,Thai Taste,Charlotte,28203,459,35.210508,-80.856277,4.1,324 East Boulevard$*$ Dilworth$*$ Charlotte$*$ NC 28203,17148369,0
17523,17523,a88829,b392,Campbell's Greenhouses,Charlotte,28203,24,35.207751,-80.859744,4.5,209 McDonald Ave,0,TEdtu4fe7yZ5biKsYpURBw,Sullivan's Steakhouse,Charlotte,28203,486,35.210526,-80.859246,4.1,1928 South Boulevard$*$ Charlotte$*$ NC 28203,17148288,0
17845,17845,a96386,b400,Boone's Barbque Kitchen,Charlotte,28203,9,35.218167,-80.856737,4.5,1422 Winnifred St,0,w_X-UvtOBMiZioKBEp0CHQ,Luna's Living Kitchen,Charlotte,28203,244,35.208548,-80.86153,4.1,2102 South Boulevard$*$ Suite 300$*$ Charlotte$*$ NC 28203,17150072,0
17941,17941,a98996,b336,300 East,Charlotte,28203,439,35.2105533,-80.8566726,4.0,300 East Blvd,0,D2ojX9bvE0_-aIj9BhdZZA,300 East,Charlotte,28203,617,35.210862,-80.856527,4.3,300 East Boulevard$*$ Charlotte$*$ NC 28203,17146635,0
17944,17944,a98996,b397,300 East,Charlotte,28203,439,35.2105533,-80.8566726,4.0,300 East Blvd,0,D2ojX9bvE0_-aIj9BhdZZA,Thai Taste,Charlotte,28203,459,35.210508,-80.856277,4.1,324 East Boulevard$*$ Dilworth$*$ Charlotte$*$ NC 28203,17148369,0
18005,18005,a101638,b400,Luna's Living Kitchen,Charlotte,28203,286,35.20872205,-80.86143192,4.5,2102 S Blvd$*$ Ste 150,0,TLWZK8NIpn4zI4_yut-q6Q,Luna's Living Kitchen,Charlotte,28203,244,35.208548,-80.86153,4.1,2102 South Boulevard$*$ Suite 300$*$ Charlotte$*$ NC 28203,17150072,0
18094,18094,a103947,b397,Rai Lay,Charlotte,28203,62,35.2142797,-80.8554393,4.0,1520 South Blvd,0,UpNnjV6p5GVPX6r_itOGUg,Thai Taste,Charlotte,28203,459,35.210508,-80.856277,4.1,324 East Boulevard$*$ Dilworth$*$ Charlotte$*$ NC 28203,17148369,0
18115,18115,a104233,b400,Luna's Living Kitchen,Charlotte,28203,214,35.20902658,-80.86115551,4.5,2000 S Blvd$*$ Ste 300,0,R1jJQi2yR44D_2ileqr8kA,Luna's Living Kitchen,Charlotte,28203,244,35.208548,-80.86153,4.1,2102 South Boulevard$*$ Suite 300$*$ Charlotte$*$ NC 28203,17150072,0
18289,18289,a127611,b332,Euro Cars,Charlotte,28203,3,35.218868,-80.860604,2.5,1501 S Mint St,0,W-YDcLSrbA1q-sOy0xdHCg,Ru Sans,Charlotte,28203,1182,35.197861,-80.851802,4.3,2440 Park Road$*$ Charlotte$*$ NC 28203,17148099,0
18923,18923,a7311,b2332,Bonito Michoacan,Las Vegas,89103,481,36.1221978,-115.2089027,4.0,3715 S Decatur Blvd,0,lOQPeguczAueJnLmDUTfGg,Bonito Michoacan,Las Vegas,89103,255,36.122262,-115.208369,4.4,3715 S Decatur Boulevard$*$ Las Vegas$*$ NV 89103,16977626,0
18997,18997,a12066,b2398,Canal Street,Las Vegas,89103,56,36.10198284,-115.2014914,4.0,Orleans Hotel and Casino$*$ 4500 W Tropicana Ave,0,bfp51Aaft7T3M9gQnVsI_g,Carnival World Buffet,Las Vegas,89103,382,36.1157,-115.187,4.1,3700 W Flamingo Rd$*$ Las Vegas$*$ NV 89103,16977828,0
19169,19169,a18748,b2398,Carnival World & Seafood Buffet,Las Vegas,89103,255,36.11781274,-115.1874098,2.5,Rio All-Suite Hotel & Casino$*$ 3700 W Flamingo Road,0,KhWl4Mwhm_Oqq0zIIz-0wQ,Carnival World Buffet,Las Vegas,89103,382,36.1157,-115.187,4.1,3700 W Flamingo Rd$*$ Las Vegas$*$ NV 89103,16977828,0
19532,19532,a23505,b2362,Jannat Indian Cuisine,Las Vegas,89103,67,36.0998469,-115.220449,4.5,5795 W Tropicana Ave,0,ViF5Kd7pBF1JJhlvEy1kpA,Nora's Cuisine,Las Vegas,89103,548,36.114777,-115.223348,4.2,6020 W Flamingo Road$*$ Las Vegas$*$ NV 89103,16979551,0
19541,19541,a23768,b2398,French Market Buffet,Las Vegas,89103,301,36.10272319,-115.2025938,3.0,4500 W Tropicana Ave,0,#NAME?,Carnival World Buffet,Las Vegas,89103,382,36.1157,-115.187,4.1,3700 W Flamingo Rd$*$ Las Vegas$*$ NV 89103,16977828,0
19576,19576,a24641,b2362,Nora's Italian Cuisine,Las Vegas,89103,973,36.1148522,-115.2203694,4.0,5780 W Flamingo Rd,0,pHJu8tj3sI8eC5aIHLFEfQ,Nora's Cuisine,Las Vegas,89103,548,36.114777,-115.223348,4.2,6020 W Flamingo Road$*$ Las Vegas$*$ NV 89103,16979551,0
19624,19624,a26283,b2362,Long Jin Chinese Cuisine,Las Vegas,89103,84,36.1008769,-115.2445968,3.5,4825 S Rainbow Blvd$*$ Ste 204-205,0,0nlocywsFHQmEt8_xbHNiw,Nora's Cuisine,Las Vegas,89103,548,36.114777,-115.223348,4.2,6020 W Flamingo Road$*$ Las Vegas$*$ NV 89103,16979551,0
19668,19668,a27149,b2362,Maria's Tailors,Las Vegas,89103,3,36.123384,-115.2085667,5.0,3655 S Decatur Blvd,0,PA61Rwk3AMwOEXHevA7nkg,Nora's Cuisine,Las Vegas,89103,548,36.114777,-115.223348,4.2,6020 W Flamingo Road$*$ Las Vegas$*$ NV 89103,16979551,0
19693,19693,a27648,b2398,Carnival World Buffet,Las Vegas,89103,1374,36.11788994,-115.1893946,3.5,Rio All-Suite Hotel & Casino$*$ 3700 W Flamingo Road,0,FLMxWQO-ckCQmGZhU9OQgw,Carnival World Buffet,Las Vegas,89103,382,36.1157,-115.187,4.1,3700 W Flamingo Rd$*$ Las Vegas$*$ NV 89103,16977828,0
19748,19748,a32239,b2362,Caspian Persian Cuisine,Las Vegas,89103,25,36.10007809,-115.2332432,3.5,6370 W Flamingo Rd,0,sTZla2pB_nYR0Vg1nBj4Mg,Nora's Cuisine,Las Vegas,89103,548,36.114777,-115.223348,4.2,6020 W Flamingo Road$*$ Las Vegas$*$ NV 89103,16979551,0
20022,20022,a41410,b2303,In-N-Out Burger,Las Vegas,89103,853,36.1013195,-115.1821862,4.0,4888 Dean Martin Dr,0,nVAJZ6BJ9PPlxDXn976R6A,In-N-Out Burger,Las Vegas,89103,1071,36.101009,-115.182811,4.8,4888 Dean Martin Drive$*$ Las Vegas$*$ NV 89103,16978756,0
20499,20499,a57295,b2332,Botanas La Michoacana,Las Vegas,89103,23,36.1229755,-115.2090921,4.0,3675 S Decatur Blvd$*$ Ste 12,0,xgWRBPr3k8iJp10cZE9GHw,Bonito Michoacan,Las Vegas,89103,255,36.122262,-115.208369,4.4,3715 S Decatur Boulevard$*$ Las Vegas$*$ NV 89103,16977626,0
20589,20589,a61366,b2398,China Star Buffet,Las Vegas,89103,32,36.099494,-115.2083645,2.0,4945 W Tropicana Ave,0,BYYTKKHMGoTPjILP-WMpFw,Carnival World Buffet,Las Vegas,89103,382,36.1157,-115.187,4.1,3700 W Flamingo Rd$*$ Las Vegas$*$ NV 89103,16977828,0
20646,20646,a62637,b2303,Fatburger,Las Vegas,89103,62,36.1140874,-115.2404642,2.5,6775  W Flamingo Road,0,qAz6G72Xnrgxnep6mKUnWg,In-N-Out Burger,Las Vegas,89103,1071,36.101009,-115.182811,4.8,4888 Dean Martin Drive$*$ Las Vegas$*$ NV 89103,16978756,0
20869,20869,a66196,b2398,Cartridge World,Las Vegas,89103,13,36.1227157,-115.2430934,4.0,3655 S Rainbow Blvd$*$ Ste 104,0,Aen3SSXgKjCCiBaTnmUq0Q,Carnival World Buffet,Las Vegas,89103,382,36.1157,-115.187,4.1,3700 W Flamingo Rd$*$ Las Vegas$*$ NV 89103,16977828,0
21828,21828,a103782,b2362,Island Malaysian Cuisine,Las Vegas,89103,192,36.125592,-115.211199,4.0,5115 Spring Mountain Rd$*$ Ste 217,0,X5uxdU9GHoUAqo2wmbg3OQ,Nora's Cuisine,Las Vegas,89103,548,36.114777,-115.223348,4.2,6020 W Flamingo Road$*$ Las Vegas$*$ NV 89103,16979551,0
22096,22096,a108570,b2362,Chang's Hong Kong Cuisine,Las Vegas,89103,452,36.105081,-115.20764,3.5,4670 S Decatur Blvd,0,OHFH6ALQqq35NiEbD1eXuw,Nora's Cuisine,Las Vegas,89103,548,36.114777,-115.223348,4.2,6020 W Flamingo Road$*$ Las Vegas$*$ NV 89103,16979551,0
22318,22318,a114316,b2303,Gun Butler,Las Vegas,89103,3,36.115157,-115.2320144,5.0,6370 W Flamingo Rd$*$ Ste 14-J,0,pv11aqRMnBCDYoMCgMu25Q,In-N-Out Burger,Las Vegas,89103,1071,36.101009,-115.182811,4.8,4888 Dean Martin Drive$*$ Las Vegas$*$ NV 89103,16978756,0
22649,22649,a125462,b2398,Bistro Buffet,Las Vegas,89103,407,36.115137,-115.195433,3.0,4321 W Flamingo Rd,0,Y07qIurPKiUJDnTZWxZN2A,Carnival World Buffet,Las Vegas,89103,382,36.1157,-115.187,4.1,3700 W Flamingo Rd$*$ Las Vegas$*$ NV 89103,16977828,0
22809,22809,a127285,b2398,Ports O' Call Buffet,Las Vegas,89103,151,36.1166353,-115.1929046,3.0,4000 W Flamingo Rd,0,UXFLCGw1yOCajlMONYQM1w,Carnival World Buffet,Las Vegas,89103,382,36.1157,-115.187,4.1,3700 W Flamingo Rd$*$ Las Vegas$*$ NV 89103,16977828,0
22948,22948,a133028,b2362,Japanese Cuisine By Omae,Las Vegas,89103,60,36.123621,-115.2074151,4.5,3650 S Decatur Blvd$*$ Ste 26,0,Y1LB0uDuJQ1jP5usRdsZZg,Nora's Cuisine,Las Vegas,89103,548,36.114777,-115.223348,4.2,6020 W Flamingo Road$*$ Las Vegas$*$ NV 89103,16979551,0
23102,23102,a138293,b2303,Back Room Burger,Las Vegas,89103,24,36.11443805,-115.1929949,3.0,Palms Casino Resort$*$ 4321 W Flamingo Rd,0,qgng2rCxAPJr2YQZZp2mdg,In-N-Out Burger,Las Vegas,89103,1071,36.101009,-115.182811,4.8,4888 Dean Martin Drive$*$ Las Vegas$*$ NV 89103,16978756,0
23184,23184,a140022,b2362,Nina's Cafe,Las Vegas,89103,26,36.1148713,-115.2066735,4.0,4825 W Flamingo Rd$*$ Ste 9-10,0,IGYlCWnhjTg8QHvnaxpagA,Nora's Cuisine,Las Vegas,89103,548,36.114777,-115.223348,4.2,6020 W Flamingo Road$*$ Las Vegas$*$ NV 89103,16979551,0
23224,23224,a140171,b2362,Golden Dragon Chinese Cuisine,Las Vegas,89103,84,36.10123081,-115.225915,3.5,6120 W Tropicana Ave$*$ Ste A1,0,safPeH-s-P56V6wt6G0sFg,Nora's Cuisine,Las Vegas,89103,548,36.114777,-115.223348,4.2,6020 W Flamingo Road$*$ Las Vegas$*$ NV 89103,16979551,0
23288,23288,a140535,b2362,Royal Vision,Las Vegas,89103,5,36.1151927,-115.2320254,3.5,6370 W Flamingo Rd$*$ Ste 8,0,C8vZ5O-typOqH7pVYrgLBw,Nora's Cuisine,Las Vegas,89103,548,36.114777,-115.223348,4.2,6020 W Flamingo Road$*$ Las Vegas$*$ NV 89103,16979551,0
23660,23660,a133408,b317,Taqueria La Unica,Indian Trail,28079,180,35.0678584,-80.6775771,4.5,4305 Old Monroe Rd,0,57aBx6Mo_VRk_kMA8J5Efg,Taqueria la Unica,Charlotte,28079,345,35.067698,-80.678044,4.5,4305 Old Monroe Road$*$ NC 28079,17149730,0
23726,23726,a28555,b3586,Wendy's,Stow,44224,6,41.2017402,-81.4397075,1.0,5025 Darrow Rd,0,7vqsCTpH_QFomi0Q_URf2w,Swenson's,Cleveland,44224,294,41.155145,-81.400499,4.2,4466 Kent Rd$*$ Stow$*$ OH 44224,16962983,0
23772,23772,a42787,b3586,Wendy's,Stow,44224,3,41.1567962,-81.4048807,2.0,4305 Kent Rd,0,-1HW4ALuB331RgjwHOA0Nw,Swenson's,Cleveland,44224,294,41.155145,-81.400499,4.2,4466 Kent Rd$*$ Stow$*$ OH 44224,16962983,0
23845,23845,a1164,b1527,BreadWorks Bakery,Pittsburgh,15212,19,40.46194,-80.01929,4.5,2110 Brighton Rd,0,Uh6EhbFKgQlhVpfvnqsfHA,Breadworks,Pittsburgh,15212,478,40.461944,-80.019057,4.5,2110 Brighton Rd$*$ Pittsburgh$*$ PA 15212,17036048,0
23888,23888,a7608,b1559,Legends of The North Shore,Pittsburgh,15212,101,40.4566092,-80.0015054,4.0,500 E N Ave,0,QeShrs6cUNBjJoTCkJiB0g,Legends of the North Shore Restaurant,Pittsburgh,15212,629,40.4565599,-80.0015124,4.3,500 E North Avenue$*$ Pittsburgh$*$ PA 15212,17036766,0
23916,23916,a18527,b1518,CCAC-Allegheny,Pittsburgh,15212,7,40.4497239,-80.0131562,3.0,808 Ridge Ave,0,5Rztf2RObLnq3h6HDmry2w,Max's Allegheny Tavern,Pittsburgh,15212,983,40.455089,-80.000483,4.5,537 Suismon St$*$ Pittsburgh$*$ PA 15212,17036875,0
24013,24013,a38293,b1527,Burgatory,Pittsburgh,15212,119,40.4459841,-80.0108794,4.0,342 N Shore Dr,0,ZARPISrzPW6PrMSwexHnxw,Breadworks,Pittsburgh,15212,478,40.461944,-80.019057,4.5,2110 Brighton Rd$*$ Pittsburgh$*$ PA 15212,17036048,0
24156,24156,a80159,b1518,Max's Allegheny Tavern,Pittsburgh,15212,176,40.4551576,-79.999728,4.0,537 Suismon St,0,_-W_hRQRDEqVdO1WKGa-DQ,Max's Allegheny Tavern,Pittsburgh,15212,983,40.455089,-80.000483,4.5,537 Suismon St$*$ Pittsburgh$*$ PA 15212,17036875,0
24170,24170,a83744,b1559,Verdetto's Bar & Restaurant,Pittsburgh,15212,5,40.455289,-79.996929,4.0,814 Madison Ave,0,V0DJ2gDXlKl11VJ75ZN0-A,Legends of the North Shore Restaurant,Pittsburgh,15212,629,40.4565599,-80.0015124,4.3,500 E North Avenue$*$ Pittsburgh$*$ PA 15212,17036766,0
24326,24326,a138499,b1559,Morgan at North Shore,Pittsburgh,15212,3,40.4489033,-80.0000313,3.0,100 Anderson St,0,sKj6YZekA6CCCrNWSlq--Q,Legends of the North Shore Restaurant,Pittsburgh,15212,629,40.4565599,-80.0015124,4.3,500 E North Avenue$*$ Pittsburgh$*$ PA 15212,17036766,0
24335,24335,a138794,b1559,Beers of the Burgh at PNC Park,Pittsburgh,15212,3,40.4475394,-80.00722068,3.5,PNC Park$*$ 115 Federal St,0,iQoO-7JdyaEawt8j-MxR0w,Legends of the North Shore Restaurant,Pittsburgh,15212,629,40.4565599,-80.0015124,4.3,500 E North Avenue$*$ Pittsburgh$*$ PA 15212,17036766,0
24554,24554,a5302,b592,King Solomon's Pizza,Phoenix,85014,16,33.5080653,-112.065452,4.5,4810 N 7th St,0,HCsceGqc3Y3SiUxcpzNuDA,Spinato's Pizza,Phoenix,85014,234,33.517438,-112.063844,4.0,5509 North 7th Street$*$ Midtown$*$ Phoenix$*$ AZ 85014,17029287,0
24822,24822,a23813,b555,Segal's Oasis Grill,Phoenix,85014,30,33.50796,-112.065353,3.5,4818 N 7th St,0,KCVnCb6TvTzoDp4t-Qf4wQ,Sierra Bonita Grill,Phoenix,85014,342,33.537881,-112.064903,4.1,6933 North 7th Street$*$ Midtown$*$ Phoenix$*$ AZ 85014,17029205,0
24857,24857,a23917,b554,Spinato's Pizzeria,Phoenix,85014,221,33.51700641,-112.0646513,4.0,5509 N 7th St,0,_mg5bYknpZgaWSfjQVmrJQ,Oregano's Pizza Bistro,Phoenix,85014,348,33.509437,-112.060141,4.1,1008 E Camelback Rd$*$ Phoenix$*$ AZ 85014,17028233,0
24860,24860,a23917,b592,Spinato's Pizzeria,Phoenix,85014,221,33.51700641,-112.0646513,4.0,5509 N 7th St,0,_mg5bYknpZgaWSfjQVmrJQ,Spinato's Pizza,Phoenix,85014,234,33.517438,-112.063844,4.0,5509 North 7th Street$*$ Midtown$*$ Phoenix$*$ AZ 85014,17029287,0
25002,25002,a24780,b555,Zipps Sports Grill,Phoenix,85014,175,33.52309971,-112.0492819,3.0,1515 E Bethany Home Rd,0,wERcL1KznuTgfltSKQt_jg,Sierra Bonita Grill,Phoenix,85014,342,33.537881,-112.064903,4.1,6933 North 7th Street$*$ Midtown$*$ Phoenix$*$ AZ 85014,17029205,0
25185,25185,a25533,b535,Mediterranean House,Phoenix,85014,7,33.523734,-112.0479747,4.0,1588 E Bethany Home Rd,0,Z8rT-KsNYYRBVK8j6x35FQ,The Fry Bread House,Phoenix,85014,337,33.494402,-112.060828,4.2,1003 East Indian School Road$*$ Midtown$*$ Phoenix$*$ AZ 85014,17026650,0
25271,25271,a25995,b554,Domino's Pizza,Phoenix,85014,14,33.5095292,-112.0609579,2.0,914 E Camelback Rd,0,U8CnzJzi54gkveXx9xnVYQ,Oregano's Pizza Bistro,Phoenix,85014,348,33.509437,-112.060141,4.1,1008 E Camelback Rd$*$ Phoenix$*$ AZ 85014,17028233,0
25274,25274,a25995,b592,Domino's Pizza,Phoenix,85014,14,33.5095292,-112.0609579,2.0,914 E Camelback Rd,0,U8CnzJzi54gkveXx9xnVYQ,Spinato's Pizza,Phoenix,85014,234,33.517438,-112.063844,4.0,5509 North 7th Street$*$ Midtown$*$ Phoenix$*$ AZ 85014,17029287,0
25434,25434,a26530,b555,Sierra Bonita Grill,Phoenix,85014,304,33.537786,-112.064608,4.0,6933 N 7th St,0,J5ebC7fKqrSF8KuS8d6hgw,Sierra Bonita Grill,Phoenix,85014,342,33.537881,-112.064903,4.1,6933 North 7th Street$*$ Midtown$*$ Phoenix$*$ AZ 85014,17029205,0
25449,25449,a26541,b535,Two Hippies Beach House,Phoenix,85014,11,33.484011,-112.048027,4.0,3102 N 16th St,0,V8qX2nhSmuf-CR_cQPqeNA,The Fry Bread House,Phoenix,85014,337,33.494402,-112.060828,4.2,1003 East Indian School Road$*$ Midtown$*$ Phoenix$*$ AZ 85014,17026650,0
25458,25458,a26578,b555,The Habit Burger Grill,Phoenix,85014,177,33.5380162,-112.063202,4.0,745 E Glendale Ave,0,HpRsWkYHu-pumsZ4O_Linw,Sierra Bonita Grill,Phoenix,85014,342,33.537881,-112.064903,4.1,6933 North 7th Street$*$ Midtown$*$ Phoenix$*$ AZ 85014,17029205,0
25665,25665,a28375,b535,ZenYard Guest House,Phoenix,85014,25,33.5313626,-112.0615642,5.0,830 E Maryland Ave,0,7qgKHElL4ISmeXGtnUk-6Q,The Fry Bread House,Phoenix,85014,337,33.494402,-112.060828,4.2,1003 East Indian School Road$*$ Midtown$*$ Phoenix$*$ AZ 85014,17026650,0
26254,26254,a38147,b553,Cherryblossom Noodle Cafe,Phoenix,85014,817,33.50980204,-112.0610866,4.0,914 E Camelback Rd,0,fT6Uwl6abRQfiNgxre_qbg,Cherryblossom Noodle Cafe,Phoenix,85014,316,33.509437,-112.061628,4.1,914 East Camelback Road$*$ Phoenix$*$ AZ 85014,17025780,0
26286,26286,a38371,b555,Athens Bar and Grill,Phoenix,85014,58,33.4951617,-112.0633344,4.0,830 E Indian School Rd,0,k3usuzYs_UVBkSgUbmthdQ,Sierra Bonita Grill,Phoenix,85014,342,33.537881,-112.064903,4.1,6933 North 7th Street$*$ Midtown$*$ Phoenix$*$ AZ 85014,17029205,0
26351,26351,a38808,b554,Oregano's Pizza Bistro,Phoenix,85014,417,33.5094801,-112.0601964,4.0,1008 E Camelback Rd,0,dUffgo9Lh_Vk9TLuFR5ywg,Oregano's Pizza Bistro,Phoenix,85014,348,33.509437,-112.060141,4.1,1008 E Camelback Rd$*$ Phoenix$*$ AZ 85014,17028233,0
26354,26354,a38808,b592,Oregano's Pizza Bistro,Phoenix,85014,417,33.5094801,-112.0601964,4.0,1008 E Camelback Rd,0,dUffgo9Lh_Vk9TLuFR5ywg,Spinato's Pizza,Phoenix,85014,234,33.517438,-112.063844,4.0,5509 North 7th Street$*$ Midtown$*$ Phoenix$*$ AZ 85014,17029287,0
26617,26617,a81422,b560,Luci's Healthy Marketplace,Phoenix,85014,425,33.5239465,-112.0478991,4.0,1590 E Bethany Home Rd,0,fjapWp89YVCeKvW51KUDQw,Luci's Healthy Marketplace & Coffee Bar,Phoenix,85014,246,33.523891,-112.047873,4.1,1590 East Bethany Home Road$*$ Midtown$*$ Phoenix$*$ AZ 85014,17030810,0
27035,27035,a116651,b554,Fuego Bistro,Phoenix,85014,525,33.5219022,-112.0640939,4.5,713 E Palo Verde Rd,0,HGvNE87fvK5PwKMZBDkTbA,Oregano's Pizza Bistro,Phoenix,85014,348,33.509437,-112.060141,4.1,1008 E Camelback Rd$*$ Phoenix$*$ AZ 85014,17028233,0
27051,27051,a119084,b535,The Fry Bread House,Phoenix,85014,128,33.49442904,-112.0606337,4.0,1003 E Indian School Rd,0,6KJoamvn2_o1UpBaOwy2IQ,The Fry Bread House,Phoenix,85014,337,33.494402,-112.060828,4.2,1003 East Indian School Road$*$ Midtown$*$ Phoenix$*$ AZ 85014,17026650,0
27261,27261,a79964,b533,Bobby Q,Phoenix,85051,1689,33.5610848,-112.115747,4.5,8501 N 27th Ave,0,VyVIneSU7XAWgMBllI6LnQ,Bobby-Q,Phoenix,85051,370,33.560598,-112.11678,4.2,8501 North 27th Avenue$*$ Phoenix$*$ AZ 85051,17025437,0
27488,27488,a3250,b2352,Sushi Dan,Las Vegas,89117,11,36.1433538,-115.2512854,3.5,7293 W Sahara Ave,0,8DcFtolCfmxupCg-ijNJQA,Sushi Fever,Las Vegas,89117,279,36.143547,-115.265178,4.3,7985 W Sahara Ave Ste 105$*$ Las Vegas$*$ NV 89117,16980483,0
27610,27610,a8312,b2310,Cici's Pizza,Las Vegas,89117,8,36.1439128,-115.276078,3.0,8465 W Sahara Ave,0,v2UKNMDqWN1UaWlK2Ugx2Q,Archi's Thai Caf,Las Vegas,89117,424,36.144634,-115.298864,4.6,9350 West Sahara Avenue$*$ Summerlin South$*$ Las Vegas$*$ NV 89117,16981405,0
28136,28136,a49175,b2352,Bachi Burger,Las Vegas,89117,960,36.14690984,-115.300777,4.0,9410 W Sahara Ave$*$ Ste 150,0,ZibmYdOPKLlqDM9oR6xzOA,Sushi Fever,Las Vegas,89117,279,36.143547,-115.265178,4.3,7985 W Sahara Ave Ste 105$*$ Las Vegas$*$ NV 89117,16980483,0
28236,28236,a53423,b2379,Carmine's,Las Vegas,89117,38,36.136073,-115.278408,3.5,2940 S Durango Dr,0,FevycwulBfHEZt77dv2EyA,Mastrioni's,Las Vegas,89117,319,36.129276,-115.31503,4.2,3330 S Hualapai Way$*$ Las Vegas$*$ NV 89117,16977733,0
28298,28298,a55385,b2352,Sushi Mon,Las Vegas,89117,195,36.14466602,-115.272706,3.5,8320 W Sahara Ave$*$ Ste 180,0,W7DwXa_7LNmETFHSQJZ2Lg,Sushi Fever,Las Vegas,89117,279,36.143547,-115.265178,4.3,7985 W Sahara Ave Ste 105$*$ Las Vegas$*$ NV 89117,16980483,0
28687,28687,a63846,b2310,Archi's Thai Cafe,Las Vegas,89117,410,36.14715261,-115.2999764,4.0,9350 W Sahara Ave,0,qsJkjQoM3Hdg6Gtqp2S9_w,Archi's Thai Caf,Las Vegas,89117,424,36.144634,-115.298864,4.6,9350 West Sahara Avenue$*$ Summerlin South$*$ Las Vegas$*$ NV 89117,16981405,0
28967,28967,a72533,b2352,Sushi Fever,Las Vegas,89117,299,36.14319843,-115.2644564,4.0,7985 W Sahara Ave$*$ Ste 105,0,GkRF8rSvh9cOQuuPeDh9bg,Sushi Fever,Las Vegas,89117,279,36.143547,-115.265178,4.3,7985 W Sahara Ave Ste 105$*$ Las Vegas$*$ NV 89117,16980483,0
29242,29242,a82271,b2310,Something's Brewing Cafe,Las Vegas,89117,21,36.1334919,-115.278964,3.5,3100 S Durango Dr$*$ Ste 1001,0,pIC8VOa9pPvq6JI02DKPlg,Archi's Thai Caf,Las Vegas,89117,424,36.144634,-115.298864,4.6,9350 West Sahara Avenue$*$ Summerlin South$*$ Las Vegas$*$ NV 89117,16981405,0
29249,29249,a82438,b2352,Sushi Mon,Las Vegas,89117,264,36.14359527,-115.2798899,3.5,8320 W Sahara Ave$*$ Ste 180,0,m_CqRpEZ2XDH3fp-KFAycQ,Sushi Fever,Las Vegas,89117,279,36.143547,-115.265178,4.3,7985 W Sahara Ave Ste 105$*$ Las Vegas$*$ NV 89117,16980483,0
29495,29495,a96446,b2352,Sunshine Movers,Las Vegas,89117,128,36.1594987,-115.2692912,5.0,8100 West Charleston$*$ Ste 102,0,CVXPA2pB9YWJWwUGl_cECg,Sushi Fever,Las Vegas,89117,279,36.143547,-115.265178,4.3,7985 W Sahara Ave Ste 105$*$ Las Vegas$*$ NV 89117,16980483,0
29975,29975,a118601,b2352,Super Cleaners,Las Vegas,89117,3,36.1599202,-115.2790222,3.0,8550 W Charleston Blvd$*$ Ste 106,0,1viEVAg6Qbz5PFvGtx7iog,Sushi Fever,Las Vegas,89117,279,36.143547,-115.265178,4.3,7985 W Sahara Ave Ste 105$*$ Las Vegas$*$ NV 89117,16980483,0
30774,30774,a142845,b2379,Mastrioni's,Las Vegas,89117,246,36.1291479,-115.3145433,4.0,3330 S Hualapai Way$*$ Ste 160,0,HaPwC4nxs6RPfe1pAQkQ4A,Mastrioni's,Las Vegas,89117,319,36.129276,-115.31503,4.2,3330 S Hualapai Way$*$ Las Vegas$*$ NV 89117,16977733,0
30944,30944,a10433,b2369,Rachel's Kitchen,Las Vegas,89101,242,36.169872,-115.139516,4.0,150 Las Vegas Blvd N$*$ Ste 160,0,xk-fOf_M39kDTgzfVgu0Tw,Carson Kitchen,Las Vegas,89101,118,36.167937,-115.140467,4.2,124 S 6th St$*$ Las Vegas$*$ NV 89101,16983968,0
31032,31032,a20032,b2369,Tinoco's Kitchen,Las Vegas,89101,30,36.1697096,-115.1236952,4.0,Las Vegas Club Hotel$*$ 18 E Fremont Street,0,xWvs1-iNlJtw3NTyWl2BbA,Carson Kitchen,Las Vegas,89101,118,36.167937,-115.140467,4.2,124 S 6th St$*$ Las Vegas$*$ NV 89101,16983968,0
31522,31522,a67189,b2369,Country Kitchen,Las Vegas,89101,3,36.160158,-115.10591,4.0,23 N Mojave Rd,0,AiLlU89krS-2QG5bO5dcjw,Carson Kitchen,Las Vegas,89101,118,36.167937,-115.140467,4.2,124 S 6th St$*$ Las Vegas$*$ NV 89101,16983968,0
31662,31662,a72786,b2369,Carson St Cafe,Las Vegas,89101,3,36.16737976,-115.1461925,2.5,Golden Nugget Hotel & Casino$*$ 129 E Fremont St Downtown,0,SH3mLia3JdfRfuU2EZHuQQ,Carson Kitchen,Las Vegas,89101,118,36.167937,-115.140467,4.2,124 S 6th St$*$ Las Vegas$*$ NV 89101,16983968,0
31708,31708,a76715,b2369,Le Pho Vietnamese Kitchen,Las Vegas,89101,136,36.1634424,-115.1465035,4.0,353 Bonneville Ave$*$ Ste 115,0,r05kbKriZ3Z56Nre1WQIDg,Carson Kitchen,Las Vegas,89101,118,36.167937,-115.140467,4.2,124 S 6th St$*$ Las Vegas$*$ NV 89101,16983968,0
31835,31835,a85480,b2319,Le Thai,Las Vegas,89101,1117,36.16880181,-115.1398801,4.0,523 Fremont St,0,#NAME?,Le Thai,Las Vegas,89101,278,36.1687428,-115.1398662,4.5,523 Fremont St$*$ Las Vegas$*$ NV 89101,16982500,0
31844,31844,a85964,b2369,Carson Kitchen,Las Vegas,89101,1225,36.16787832,-115.1406405,4.5,124 S 6th St$*$ Ste 100,0,2iTsRqUsPGRH1li1WVRvKQ,Carson Kitchen,Las Vegas,89101,118,36.167937,-115.140467,4.2,124 S 6th St$*$ Las Vegas$*$ NV 89101,16983968,0
32440,32440,a133094,b2369,Carson Street Cafe,Las Vegas,89101,60,36.16864538,-115.1236725,2.5,Golden Nugget Las Vegas$*$ 129 Fremont St,0,g6w4kX7tvCqGKAxr07aBQA,Carson Kitchen,Las Vegas,89101,118,36.167937,-115.140467,4.2,124 S 6th St$*$ Las Vegas$*$ NV 89101,16983968,0
32658,32658,a3171,b3591,Mashiso Asian Grille,North Olmsted,44070,63,41.4194734,-81.8979624,4.0,24954 Brookpark Rd,0,yBbqFPuwFiaom435KOY4cg,Mashiso Asian Grille,Cleveland,44070,210,41.419094,-81.898564,4.2,24954 Brookpark Rd$*$ North Olmsted$*$ OH 44070,16964914,0
32738,32738,a7626,b3591,Chipotle Mexican Grill,North Olmsted,44070,16,41.416894,-81.913734,2.0,26420 Great Northern Shop Ctr,0,aHDJO8v0WfTRSE2NblNpDw,Mashiso Asian Grille,Cleveland,44070,210,41.419094,-81.898564,4.2,24954 Brookpark Rd$*$ North Olmsted$*$ OH 44070,16964914,0
32743,32743,a7675,b3591,Ohio Kabob Grill,North Olmsted,44070,35,41.407326,-81.94113,4.5,28879 Lorain Rd,0,KnaIbUk-eQm_tEsENO1oFw,Mashiso Asian Grille,Cleveland,44070,210,41.419094,-81.898564,4.2,24954 Brookpark Rd$*$ North Olmsted$*$ OH 44070,16964914,0
32789,32789,a18919,b3502,Fat Heads Brewery and Saloon,North Olmsted,44070,422,41.4264256,-81.8941989,4.0,24581 Lorain Rd,0,CuT2Xh3vAYvRfxUWlUo6oA,Fat Heads Brewery & Saloon,Cleveland,44070,1355,41.426678,-81.894256,4.9,24581 Lorain Rd$*$ North Olmsted$*$ OH 44070,16964400,0
32826,32826,a21922,b3533,Ohashi,North Olmsted,44070,80,41.426,-81.893585,4.0,24539 Lorain Rd,0,hAApwo0DNl0TiHX9J-u-eQ,Ohashi Japanese,Cleveland,44070,336,41.426,-81.893585,4.4,24539 Lorain Rd$*$ North Olmsted$*$ OH 44070,16962037,0
32883,32883,a24444,b3591,Travelers Grille,North Olmsted,44070,3,41.4274094,-81.8945852,4.0,24532 Lorain Rd,0,yMYPlgjfyR2401uYdY5WLA,Mashiso Asian Grille,Cleveland,44070,210,41.419094,-81.898564,4.2,24954 Brookpark Rd$*$ North Olmsted$*$ OH 44070,16964914,0
32893,32893,a24737,b3591,Backdraft Bar & Grille,North Olmsted,44070,5,41.425152,-81.896178,3.5,24775 Lorain Rd,0,R13eqiLCi9m76DIaDCt7eA,Mashiso Asian Grille,Cleveland,44070,210,41.419094,-81.898564,4.2,24954 Brookpark Rd$*$ North Olmsted$*$ OH 44070,16964914,0
32961,32961,a26334,b3533,Sarku Japan,North Olmsted,44070,3,41.41757253,-81.90701365,2.5,25615 Brookpark Rd,0,5ogGZ4ZiO7SwFPPtt3Zmpw,Ohashi Japanese,Cleveland,44070,336,41.426,-81.893585,4.4,24539 Lorain Rd$*$ North Olmsted$*$ OH 44070,16962037,0
33273,33273,a38554,b3591,Mi Pollo Mexican Grill,North Olmsted,44070,5,41.413906,-81.927524,4.0,27600 Lorain Rd,0,7ozeO6N1-fLruVuBcnDKfw,Mashiso Asian Grille,Cleveland,44070,210,41.419094,-81.898564,4.2,24954 Brookpark Rd$*$ North Olmsted$*$ OH 44070,16964914,0
33323,33323,a39569,b3591,Popeyes Louisiana Grill,North Olmsted,44070,12,41.4195924,-81.9130639,2.0,26170 Lorain Rd,0,Wsk9CyM-FhybMA48I38JKg,Mashiso Asian Grille,Cleveland,44070,210,41.419094,-81.898564,4.2,24954 Brookpark Rd$*$ North Olmsted$*$ OH 44070,16964914,0
33509,33509,a60866,b3502,Deps Nails & Salon,North Olmsted,44070,4,41.4199295,-81.89662933,3.0,25102 Brookpark Rd,0,1kjKjictLGVCqP63g1La7w,Fat Heads Brewery & Saloon,Cleveland,44070,1355,41.426678,-81.894256,4.9,24581 Lorain Rd$*$ North Olmsted$*$ OH 44070,16964400,0
33537,33537,a62454,b3565,Nuevo Acapulco,North Olmsted,44070,112,41.42733041,-81.89275423,3.5,24409 Lorain Rd,0,7D-ATDP9Ezr1ZehszsotOQ,Nuevo Acapulco,Cleveland,44070,541,41.426932,-81.892562,4.2,24409 Lorain Rd$*$ North Olmsted$*$ OH 44070,16962017,0
33653,33653,a68140,b3591,Mama Fu's Asian House,North Olmsted,44070,29,41.416814,-81.906416,3.0,402 Great Northern Mall,0,z_zyOfFO-OIYgCR5hstyTw,Mashiso Asian Grille,Cleveland,44070,210,41.419094,-81.898564,4.2,24954 Brookpark Rd$*$ North Olmsted$*$ OH 44070,16964914,0
33685,33685,a70330,b3524,World Market,North Olmsted,44070,10,41.4165118,-81.9130254,4.5,26145 Great Northern Shop Ctr,0,0y2FuhqI3rZI8whsVAB2Tw,Wild Mango,Cleveland,44070,505,41.418639,-81.909682,4.4,362 Great Northern Mall$*$ North Olmsted$*$ OH 44070,16964299,0
33814,33814,a104768,b3502,Ya Hala Bakery & Grill,North Olmsted,44070,11,41.41864,-81.923678,5.0,4864 Dover Center Rd,0,3eYjYgsJxvRk7ULU9Lx4WA,Fat Heads Brewery & Saloon,Cleveland,44070,1355,41.426678,-81.894256,4.9,24581 Lorain Rd$*$ North Olmsted$*$ OH 44070,16964400,0
34299,34299,a114395,b3532,Charm Thai Restaurant,Parma,44134,114,41.3637374,-81.6853549,4.0,7426 Broadview Rd,0,Mgvs9XPJpR2Vo5D4Tb59sA,Charm Thai,Cleveland,44134,401,41.364533,-81.684778,4.4,7426 Broadview Rd$*$ Parma$*$ OH 44134,16963504,0
34304,34304,a115765,b3577,Kumo Japanese Seafood Buffet,Parma,44134,115,41.4052183,-81.6917077,3.5,1975 Snow Rd,0,pfyH89xsKRasjCp1j9z3vw,Kumo Japanese Seafood Buffet,Cleveland,44134,352,41.40502,-81.694859,4.2,1975 Snow Road$*$ Parma$*$ OH 44134,16964839,0
34423,34423,a8132,b2351,In-N-Out Burger,Las Vegas,89139,191,36.04062762,-115.1912562,4.0,3882 Blue Diamond Rd,0,Kbbm6Vd5UdbP10dwjBghRw,In-N-Out Burger,Las Vegas,89139,212,36.038179,-115.195721,4.3,3882 Blue Diamond Road$*$ Las Vegas$*$ NV 89139,16981248,0
35288,35288,a134734,b2368,Sawa Sushi,Las Vegas,89139,189,36.0398786,-115.1925978,4.5,3962 Blue Diamond Rd$*$ Ste 104,0,NTtLuuBKpywlyIz6oyd9kg,Oyshi Sushi,Las Vegas,89139,483,36.047124,-115.243435,4.2,7775 S Rainbow Blvd Ste 145$*$ Las Vegas$*$ NV 89139,16981221,0
35302,35302,a135819,b2368,Oyshi Sushi,Las Vegas,89139,969,36.047306,-115.244158,3.5,7775 S Rainbow Blvd$*$ Ste 145,0,Gaq3S9lmjXVcuDCZ8ulppw,Oyshi Sushi,Las Vegas,89139,483,36.047124,-115.243435,4.2,7775 S Rainbow Blvd Ste 145$*$ Las Vegas$*$ NV 89139,16981221,0
35382,35382,a6356,b512,Pappadeaux Seafood Kitchen,Phoenix,85029,906,33.587766,-112.115899,4.0,11051 N Black Canyon Hwy,0,whAwdYVty-jSNRhrYT2zHA,Pappadeaux Seafood Kitchen,Phoenix,85029,533,33.589345,-112.116384,4.4,11501 N Black Canyon Freeway$*$ Sunnyslope/North Mountain$*$ Phoenix$*$ AZ 85029,17028356,0
35756,35756,a431,b2358,Public House,Las Vegas,89119,198,36.09541517,-115.1749703,3.0,3900 Las Vegas Blvd S,0,KaGZE0_o1EmmSN4Fo_cpUw,Yard House,Las Vegas,89119,488,36.0682346,-115.1758636,4.2,6593 S Las Vegas Boulevard$*$ Las Vegas$*$ NV 89119,16980971,0
35783,35783,a1056,b2353,Sting Alarm Las Vegas,Las Vegas,89119,14,36.060033,-115.178779,3.5,7120 Rafael Ridge Way,0,XqDeiaPSG0-fBbOXDilZNQ,Slice of Vegas,Las Vegas,89119,210,36.092089,-115.172992,4.3,3930 Las Vegas Boulevard S$*$ Las Vegas$*$ NV 89119,16982662,0
36010,36010,a3297,b2318,Jamba Juice,Las Vegas,89119,66,36.062901,-115.242966,3.5,6925 S Rainbow Blvd,0,y-KWX8ea5MX1eIJke7GKUQ,Yama Sushi,Las Vegas,89119,489,36.114809,-115.136073,4.5,1350 E Flamingo Rd$*$ Las Vegas$*$ NV 89119,16980968,0
36379,36379,a6076,b2358,Barney's Lounge,Las Vegas,89119,10,36.0831402,-115.1488005,3.5,5757 Wayne Newton Blvd,0,#NAME?,Yard House,Las Vegas,89119,488,36.0682346,-115.1758636,4.2,6593 S Las Vegas Boulevard$*$ Las Vegas$*$ NV 89119,16980971,0
36481,36481,a6346,b2328,Chase Bank,Las Vegas,89119,15,36.114887,-115.135323,2.0,1340 E,0,g_UINGgOcQq-vkpAbp7lWQ,Texas de Brazil,Las Vegas,89119,763,36.0701369,-115.1753018,4.4,6533 S Las Vegas Blvd$*$ Las Vegas$*$ NV 89119,16981172,0
36511,36511,a6439,b2353,Amorino Las Vegas,Las Vegas,89119,53,36.0679348,-115.1761754,4.5,6649 Las Vegas Blvd S$*$ Ste 100,0,bUnm0-YK5HicLzkvMWwqjQ,Slice of Vegas,Las Vegas,89119,210,36.092089,-115.172992,4.3,3930 Las Vegas Boulevard S$*$ Las Vegas$*$ NV 89119,16982662,0
36566,36566,a7118,b2331,Gibson's Canine Classroom,Las Vegas,89119,8,36.0802868,-115.1592718,4.5,,0,0fuGTfu7afB9dW5UmtFTMA,Hussong's Cantina,Las Vegas,89119,354,36.092089,-115.172992,4.4,3930 Las Vegas Boulevard S$*$ Las Vegas$*$ NV 89119,16981682,0
36602,36602,a7914,b2353,Future Yards of Las Vegas,las vegas,89119,8,36.0553458,-115.2429413,5.0,7322 S Rainbow Blvd$*$ Ste 102-172,0,VBpvRX5LIw1YcCiS2gVvGg,Slice of Vegas,Las Vegas,89119,210,36.092089,-115.172992,4.3,3930 Las Vegas Boulevard S$*$ Las Vegas$*$ NV 89119,16982662,0
36725,36725,a11445,b2322,Gary Canter's Delicatessen - Mandalay Bay,Las Vegas,89119,6,36.0930659,-115.1778316,4.5,3950 Las Vegas Blvd S,0,YyANO0qR2zE0YILChhz2Pg,Burger Bar - Mandalay Bay,Las Vegas,89119,1574,36.092089,-115.172992,4.4,Mandalay Bay$*$ 3930 South Las Vegas Boulevard$*$ The Strip$*$ Las Vegas$*$ NV 89119,16977697,0
36815,36815,a13684,b2318,Jamba Juice,Las Vegas,89119,55,36.0819824,-115.1196025,4.0,5905 S Eastern Ave$*$ Ste 108,0,Z8XyPYoxBSNpTNAehDbWLQ,Yama Sushi,Las Vegas,89119,489,36.114809,-115.136073,4.5,1350 E Flamingo Rd$*$ Las Vegas$*$ NV 89119,16980968,0
36953,36953,a15004,b2358,Vapor House LV,Las Vegas,89119,37,36.1042315,-115.1372273,4.5,4741 S Maryland Pkwy,0,0szM7Dw_VjhaCl6GH7E8Pg,Yard House,Las Vegas,89119,488,36.0682346,-115.1758636,4.2,6593 S Las Vegas Boulevard$*$ Las Vegas$*$ NV 89119,16980971,0
37001,37001,a15969,b2353,Vapor Bombz Vegas,Las Vegas,89119,29,36.1154417,-115.1336045,4.5,1370 E Flamingo Rd$*$ Ste K,0,5B2bliw6ZYnFv8VVCdoSDw,Slice of Vegas,Las Vegas,89119,210,36.092089,-115.172992,4.3,3930 Las Vegas Boulevard S$*$ Las Vegas$*$ NV 89119,16982662,0
37260,37260,a22201,b2353,Sport Center of Las Vegas,Las Vegas,89119,27,36.0698799,-115.1664298,2.5,121 E Sunset Rd,0,ULAw5sRA8S2H4gK5paywVA,Slice of Vegas,Las Vegas,89119,210,36.092089,-115.172992,4.3,3930 Las Vegas Boulevard S$*$ Las Vegas$*$ NV 89119,16982662,0
37469,37469,a28578,b2331,Dragon's Lair,Paradise,89119,4,36.098909,-115.175557,5.0,3850 S. Las Vegas Blvd,0,fknLjRUhL59FDxnWMYEEVQ,Hussong's Cantina,Las Vegas,89119,354,36.092089,-115.172992,4.4,3930 Las Vegas Boulevard S$*$ Las Vegas$*$ NV 89119,16981682,0
37687,37687,a34847,b2353,Delano Las Vegas,Las Vegas,89119,415,36.090182,-115.176807,3.0,3940 Las Vegas Blvd S,0,RCdWzJI0acxponN70QDRcw,Slice of Vegas,Las Vegas,89119,210,36.092089,-115.172992,4.3,3930 Las Vegas Boulevard S$*$ Las Vegas$*$ NV 89119,16982662,0
37793,37793,a39570,b2358,Korea House BBQ,Las Vegas,89119,7,36.24125671,-115.0537949,3.5,4435 Las Vegas Blvd,0,u3wBdbVJXkXA7VUpz_YuEQ,Yard House,Las Vegas,89119,488,36.0682346,-115.1758636,4.2,6593 S Las Vegas Boulevard$*$ Las Vegas$*$ NV 89119,16980971,0
37813,37813,a41033,b2353,Slice of Vegas,Las Vegas,89119,430,36.09128,-115.174098,3.5,Mandalay Bay$*$ 3930 Las Vegas Blvd S$*$Ste 120,0,lKq4Qsz13FDcAVgp49uukQ,Slice of Vegas,Las Vegas,89119,210,36.092089,-115.172992,4.3,3930 Las Vegas Boulevard S$*$ Las Vegas$*$ NV 89119,16982662,0
37978,37978,a44291,b2322,Avis Car Rental at Mandalay Bay,Las Vegas,89119,5,36.08940193,-115.1725602,2.0,3950 S Las Vegas Blvd,0,TLQFho2oZk9wejW1O-4gHA,Burger Bar - Mandalay Bay,Las Vegas,89119,1574,36.092089,-115.172992,4.4,Mandalay Bay$*$ 3930 South Las Vegas Boulevard$*$ The Strip$*$ Las Vegas$*$ NV 89119,16977697,0
37992,37992,a44609,b2322,The Hotel At Mandalay Bay,Las Vegas,89119,825,36.092988,-115.177838,4.0,3950 Las Vegas Blvd S,0,Ql5npMMRWKurN99tgA-g5w,Burger Bar - Mandalay Bay,Las Vegas,89119,1574,36.092089,-115.172992,4.4,Mandalay Bay$*$ 3930 South Las Vegas Boulevard$*$ The Strip$*$ Las Vegas$*$ NV 89119,16977697,0
38101,38101,a47566,b2358,Track Lounge,Las Vegas,89119,3,36.0858828,-115.149411,3.0,5757 Wayne Newton Blvd,0,hL1r-Mh-UPOQJ7tbXCd9Yw,Yard House,Las Vegas,89119,488,36.0682346,-115.1758636,4.2,6593 S Las Vegas Boulevard$*$ Las Vegas$*$ NV 89119,16980971,0
38157,38157,a48311,b2358,Paper Source,Las Vegas,89119,10,36.0685565,-115.1760712,4.5,6543 Las Vegas Blvd S,0,R1DoD1jSLmTGK1IuUDPnaw,Yard House,Las Vegas,89119,488,36.0682346,-115.1758636,4.2,6593 S Las Vegas Boulevard$*$ Las Vegas$*$ NV 89119,16980971,0
38171,38171,a48641,b2358,Nora Blue,Las Vegas,89119,3,36.0912617,-115.1742471,1.5,3930 Las Vegas Blvd S,0,3HSfvse-uDmmMNAUiWIVBQ,Yard House,Las Vegas,89119,488,36.0682346,-115.1758636,4.2,6593 S Las Vegas Boulevard$*$ Las Vegas$*$ NV 89119,16980971,0
38778,38778,a56641,b2331,Raising Cane's,Las Vegas,89119,304,36.1149831,-115.1397985,4.0,1120 E Flamingo Rd,0,ZFyJ83LJkkO1dP82kzXKNg,Hussong's Cantina,Las Vegas,89119,354,36.092089,-115.172992,4.4,3930 Las Vegas Boulevard S$*$ Las Vegas$*$ NV 89119,16981682,0
38871,38871,a57318,b2358,La Bocce,Las Vegas,89119,88,36.0577328,-115.1583224,4.0,310 E Warm Springs Rd,0,UFn1moo95-PBzi9wWt5FGg,Yard House,Las Vegas,89119,488,36.0682346,-115.1758636,4.2,6593 S Las Vegas Boulevard$*$ Las Vegas$*$ NV 89119,16980971,0
39017,39017,a58219,b2353,Chicago Dogs,Las Vegas,89119,4,36.100336,-115.125135,3.0,2055 E Tropicana Ave,0,p9WVPQVhVzbBh_KEWJ21Ug,Slice of Vegas,Las Vegas,89119,210,36.092089,-115.172992,4.3,3930 Las Vegas Boulevard S$*$ Las Vegas$*$ NV 89119,16982662,0
39038,39038,a58271,b2353,Louis's Las Vegas,Las Vegas,89119,4,36.0686142,-115.1776615,4.5,6599 Las Vegas Blvd,0,U8rsbHtpV60h8USOL-kaLg,Slice of Vegas,Las Vegas,89119,210,36.092089,-115.172992,4.3,3930 Las Vegas Boulevard S$*$ Las Vegas$*$ NV 89119,16982662,0
39162,39162,a59131,b2328,Texas de Brazil,Las Vegas,89119,319,36.0701338,-115.1753307,4.5,6533 Las Vegas Blvd S,0,h7s4MRVvB726jWHCHiQ9kw,Texas de Brazil,Las Vegas,89119,763,36.0701369,-115.1753018,4.4,6533 S Las Vegas Blvd$*$ Las Vegas$*$ NV 89119,16981172,0
39927,39927,a69295,b2353,Trapeze Las Vegas,Las Vegas,89119,76,36.0698799,-115.1664298,5.0,121 E. Sunset rd.,0,_73kJo3Yg6jGoXRkEYTIJg,Slice of Vegas,Las Vegas,89119,210,36.092089,-115.172992,4.3,3930 Las Vegas Boulevard S$*$ Las Vegas$*$ NV 89119,16982662,0
39967,39967,a71266,b2328,Chase Bank,Las Vegas,89119,3,36.058026,-115.118901,5.0,7265 S Eastern Ave,0,S06JfRM3ICESOHc1pr3LOA,Texas de Brazil,Las Vegas,89119,763,36.0701369,-115.1753018,4.4,6533 S Las Vegas Blvd$*$ Las Vegas$*$ NV 89119,16981172,0
40271,40271,a76545,b2358,Bar Louie,Las Vegas,89119,19,36.0680069,-115.1763677,3.5,6605 Las Vegas Blvd S$*$ Ste N,0,hDzUXPiU85z0YujIIEy06w,Yard House,Las Vegas,89119,488,36.0682346,-115.1758636,4.2,6593 S Las Vegas Boulevard$*$ Las Vegas$*$ NV 89119,16980971,0
40354,40354,a80008,b2353,Welcome To Las Vegas,Las Vegas,89119,3,36.0912617,-115.1742471,3.5,3930 Las Vegas S Blvd,0,Widwt7qBK0iZwsjdn6ACoQ,Slice of Vegas,Las Vegas,89119,210,36.092089,-115.172992,4.3,3930 Las Vegas Boulevard S$*$ Las Vegas$*$ NV 89119,16982662,0
40474,40474,a82164,b2358,Omelet House,Las Vegas,89119,9,36.104474,-115.136561,3.5,4680 S Maryland Pkwy,0,j84mrl1I2c6mU4ltS3ofGQ,Yard House,Las Vegas,89119,488,36.0682346,-115.1758636,4.2,6593 S Las Vegas Boulevard$*$ Las Vegas$*$ NV 89119,16980971,0
40616,40616,a84810,b2318,Yaya Life,Las Vegas,89119,20,36.1049744,-115.1359993,4.5,4632 S Maryland Pkwy$*$ Ste 16,0,05OUuoInL-o8Ed-7z_cIUg,Yama Sushi,Las Vegas,89119,489,36.114809,-115.136073,4.5,1350 E Flamingo Rd$*$ Las Vegas$*$ NV 89119,16980968,0
40621,40621,a84810,b2358,Yaya Life,Las Vegas,89119,20,36.1049744,-115.1359993,4.5,4632 S Maryland Pkwy$*$ Ste 16,0,05OUuoInL-o8Ed-7z_cIUg,Yard House,Las Vegas,89119,488,36.0682346,-115.1758636,4.2,6593 S Las Vegas Boulevard$*$ Las Vegas$*$ NV 89119,16980971,0
40956,40956,a90153,b2353,Fruition Las Vegas,Las Vegas,89119,46,36.11374676,-115.1382778,4.5,4139 S Maryland Pkwy,0,tuELRpI9dIKY7p59MMernw,Slice of Vegas,Las Vegas,89119,210,36.092089,-115.172992,4.3,3930 Las Vegas Boulevard S$*$ Las Vegas$*$ NV 89119,16982662,0
41176,41176,a93855,b2318,Gorilla Sushi,Las Vegas,89119,111,36.1000666,-115.1273475,4.5,1801 E Tropicana Ave$*$ Ste 2,0,Fv4EXwV30rwGD2NzN1ekgA,Yama Sushi,Las Vegas,89119,489,36.114809,-115.136073,4.5,1350 E Flamingo Rd$*$ Las Vegas$*$ NV 89119,16980968,0
41239,41239,a94562,b2318,Baja Fresh,Las Vegas,89119,31,36.098909,-115.175557,3.5,Excalibur$*$ 3850 Las Vegas Blvd,0,nMQJ57am8aEnz1jy9Hl_3g,Yama Sushi,Las Vegas,89119,489,36.114809,-115.136073,4.5,1350 E Flamingo Rd$*$ Las Vegas$*$ NV 89119,16980968,0
41558,41558,a100734,b2353,Juice Express,Las Vegas,89119,13,36.0839998,-115.1537389,3.0,5757 Wayne Newton Blvd,0,#NAME?,Slice of Vegas,Las Vegas,89119,210,36.092089,-115.172992,4.3,3930 Las Vegas Boulevard S$*$ Las Vegas$*$ NV 89119,16982662,0
41583,41583,a101418,b2322,The Gym At Mandalay Bay,Las Vegas,89119,5,36.0936195,-115.175383,4.0,Mandalay Bay Hotel$*$ 3930 Las Vegas Blvd S,0,f6Gb4TCbNLPDSHSXIzhYzQ,Burger Bar - Mandalay Bay,Las Vegas,89119,1574,36.092089,-115.172992,4.4,Mandalay Bay$*$ 3930 South Las Vegas Boulevard$*$ The Strip$*$ Las Vegas$*$ NV 89119,16977697,0
41593,41593,a101583,b2353,Welcome To Las Vegas Sign,Paradise,89119,235,36.082525,-115.1729587,4.5,5100 Las Vegas Blvd,0,ZV3G2LxpLLuZOFbn208Z5A,Slice of Vegas,Las Vegas,89119,210,36.092089,-115.172992,4.3,3930 Las Vegas Boulevard S$*$ Las Vegas$*$ NV 89119,16982662,0
41677,41677,a102749,b2353,Slick Bartender,Las Vegas,89119,8,36.0839998,-115.1537389,5.0,,0,M8B2y_ums9NHzxptDaa5hQ,Slice of Vegas,Las Vegas,89119,210,36.092089,-115.172992,4.3,3930 Las Vegas Boulevard S$*$ Las Vegas$*$ NV 89119,16982662,0
42058,42058,a106074,b2318,Yama Sushi,Las Vegas,89119,1536,36.11552045,-115.1349706,4.0,1350 E Flamingo Rd$*$ Ste 18,0,ugLqbAvBdRDc-gS4hpslXw,Yama Sushi,Las Vegas,89119,489,36.114809,-115.136073,4.5,1350 E Flamingo Rd$*$ Las Vegas$*$ NV 89119,16980968,0
42063,42063,a106074,b2358,Yama Sushi,Las Vegas,89119,1536,36.11552045,-115.1349706,4.0,1350 E Flamingo Rd$*$ Ste 18,0,ugLqbAvBdRDc-gS4hpslXw,Yard House,Las Vegas,89119,488,36.0682346,-115.1758636,4.2,6593 S Las Vegas Boulevard$*$ Las Vegas$*$ NV 89119,16980971,0
42069,42069,a106413,b2353,BAZ Las Vegas,Las Vegas,89119,74,36.1242284,-115.1684696,4.5,The Palazzo Theater$*$ 3325 S Las Vegas Blvd,0,VsNL5l5hNLMdm4LUIH0KoQ,Slice of Vegas,Las Vegas,89119,210,36.092089,-115.172992,4.3,3930 Las Vegas Boulevard S$*$ Las Vegas$*$ NV 89119,16982662,0
42129,42129,a106698,b2322,Budget Car Rental,Las Vegas,89119,336,36.0600607,-115.1650444,1.5,7135 Gilespie St,0,ZbQC5MCxZPg2HhrQ2VV4lw,Burger Bar - Mandalay Bay,Las Vegas,89119,1574,36.092089,-115.172992,4.4,Mandalay Bay$*$ 3930 South Las Vegas Boulevard$*$ The Strip$*$ Las Vegas$*$ NV 89119,16977697,0
42188,42188,a107023,b2353,Mr. Shesha Vegas,Las Vegas,89119,36,36.0571445,-115.1286093,5.0,1725 E Warm Springs Rd,0,ucIQl4HI_LS3J8s4kRlRSA,Slice of Vegas,Las Vegas,89119,210,36.092089,-115.172992,4.3,3930 Las Vegas Boulevard S$*$ Las Vegas$*$ NV 89119,16982662,0
42273,42273,a107472,b2358,Bar Code,Las Vegas,89119,27,36.11490549,-115.1318219,4.5,1590 E Flamingo Rd,0,c5N-XCk-ntpyYRsYkwH7kA,Yard House,Las Vegas,89119,488,36.0682346,-115.1758636,4.2,6593 S Las Vegas Boulevard$*$ Las Vegas$*$ NV 89119,16980971,0
42488,42488,a108883,b2331,Loco Cantina,Las Vegas,89119,190,36.06789594,-115.1775861,3.5,6605 Las Vegas Blvd S,0,NOfbzTpQ7hrt6ZbJVeXUUw,Hussong's Cantina,Las Vegas,89119,354,36.092089,-115.172992,4.4,3930 Las Vegas Boulevard S$*$ Las Vegas$*$ NV 89119,16981682,0
42538,42538,a109326,b2353,Grape Vegas,Las Vegas,89119,26,36.0686142,-115.1776615,3.5,6599 Las Vegas Blvd$*$ Bldg P$*$ Ste B150,0,S4xzKrDov_QbC5zNyTOEyw,Slice of Vegas,Las Vegas,89119,210,36.092089,-115.172992,4.3,3930 Las Vegas Boulevard S$*$ Las Vegas$*$ NV 89119,16982662,0
43280,43280,a113963,b2353,Town Square Las Vegas,Las Vegas,89119,469,36.0671511,-115.1757889,4.0,6605 Las Vegas Blvd S,0,gy-HBIeJGlQHs4RRYDLuHw,Slice of Vegas,Las Vegas,89119,210,36.092089,-115.172992,4.3,3930 Las Vegas Boulevard S$*$ Las Vegas$*$ NV 89119,16982662,0
43335,43335,a114116,b2331,Cabo Wabo Cantina,Las Vegas,89119,4,36.089494,-115.138026,3.5,McCarran Airport Terminal C,0,tthhJbshogN6gxy3fMp58g,Hussong's Cantina,Las Vegas,89119,354,36.092089,-115.172992,4.4,3930 Las Vegas Boulevard S$*$ Las Vegas$*$ NV 89119,16981682,0
43405,43405,a114738,b2331,Jason's Deli,Las Vegas,89119,147,36.1178702,-115.1367954,4.0,3910 S Maryland Pkwy,0,#NAME?,Hussong's Cantina,Las Vegas,89119,354,36.092089,-115.172992,4.4,3930 Las Vegas Boulevard S$*$ Las Vegas$*$ NV 89119,16981682,0
43430,43430,a115050,b2318,Jamba Juice,Las Vegas,89119,54,36.083581,-115.148663,3.5,Mccarran Int'l Airport$*$ Terminal C,0,k7WrLT80uGJyfIeXCSs8og,Yama Sushi,Las Vegas,89119,489,36.114809,-115.136073,4.5,1350 E Flamingo Rd$*$ Las Vegas$*$ NV 89119,16980968,0
43666,43666,a116294,b2358,Dewar's Clubhouse,Las Vegas,89119,8,36.08559862,-115.1347857,2.0,McCarren International Airport$*$ 5757 Wayne Newton Blvd,0,DFb1yJLwBx5M48mP4jhAOQ,Yard House,Las Vegas,89119,488,36.0682346,-115.1758636,4.2,6593 S Las Vegas Boulevard$*$ Las Vegas$*$ NV 89119,16980971,0
43847,43847,a117235,b2353,AVR Las Vegas,Las Vegas,89119,59,36.061604,-115.163001,3.5,7040 Gilespie St,0,GLgL8e9QvHPvy39UIbX-cA,Slice of Vegas,Las Vegas,89119,210,36.092089,-115.172992,4.3,3930 Las Vegas Boulevard S$*$ Las Vegas$*$ NV 89119,16982662,0
44100,44100,a120042,b2358,Yard House Town Square,Las Vegas,89119,1049,36.06842674,-115.1780009,4.0,6593 Las Vegas Blvd S,0,A5Rkh7UymKm0_Rxm9K2PJw,Yard House,Las Vegas,89119,488,36.0682346,-115.1758636,4.2,6593 S Las Vegas Boulevard$*$ Las Vegas$*$ NV 89119,16980971,0
44315,44315,a123609,b2331,Hussong's Cantina - Las Vegas,Las Vegas,89119,520,36.094254,-115.176019,3.5,Mandalay Bay Shoppes$*$ 3930 Las Vegas Blvd S$*$ Ste 121B,0,e13SEvJud_vgeDR_doL4sQ,Hussong's Cantina,Las Vegas,89119,354,36.092089,-115.172992,4.4,3930 Las Vegas Boulevard S$*$ Las Vegas$*$ NV 89119,16981682,0
44376,44376,a124832,b2322,The Shoppes at Mandalay Place,Las Vegas,89119,18,36.0912617,-115.1742471,3.0,3950 S Las Vegas Blvd,0,Xy7PVlK8GxQc4d7bXtEqQw,Burger Bar - Mandalay Bay,Las Vegas,89119,1574,36.092089,-115.172992,4.4,Mandalay Bay$*$ 3930 South Las Vegas Boulevard$*$ The Strip$*$ Las Vegas$*$ NV 89119,16977697,0
44381,44381,a124908,b2305,Aureole,Las Vegas,89119,599,36.09256306,-115.1764154,3.5,3950 S Las Vegas Blvd,0,MqYYYNA-ZYvV-1w5qcmMoA,Firefly,Las Vegas,89119,1390,36.1199703,-115.1545992,4.7,3824 Paradise Rd$*$ Las Vegas$*$ NV 89119,16978406,0
44634,44634,a129905,b2318,Baja Fresh,Las Vegas,89119,33,36.0839998,-115.1537389,3.0,McCarran International Airport$*$ 5757 Wayne Newton Blvd,0,d2IDbGP7tT8C6vBtxdpmLg,Yama Sushi,Las Vegas,89119,489,36.114809,-115.136073,4.5,1350 E Flamingo Rd$*$ Las Vegas$*$ NV 89119,16980968,0
44806,44806,a132261,b2353,Gray Line Las Vegas,Las Vegas,89119,24,36.100642,-115.146429,2.0,795 E. Tropicana,0,gWPx4v-yWVfp7h8EcjyzjQ,Slice of Vegas,Las Vegas,89119,210,36.092089,-115.172992,4.3,3930 Las Vegas Boulevard S$*$ Las Vegas$*$ NV 89119,16982662,0
45087,45087,a135006,b2358,The Dog House,Las Vegas,89119,45,36.0692659,-115.1773372,4.5,6569 S Las Vegas Blvd$*$ Ste C163,0,FkEPv4mlbdqjK9fGZcCNoA,Yard House,Las Vegas,89119,488,36.0682346,-115.1758636,4.2,6593 S Las Vegas Boulevard$*$ Las Vegas$*$ NV 89119,16980971,0
45177,45177,a135504,b2353,Livescan Las Vegas,Las Vegas,89119,10,36.1038987,-115.1185437,1.5,4680 S Eastern Ave$*$ Ste H,0,8HRgT3io4TzvzHOdWWWp7Q,Slice of Vegas,Las Vegas,89119,210,36.092089,-115.172992,4.3,3930 Las Vegas Boulevard S$*$ Las Vegas$*$ NV 89119,16982662,0
45632,45632,a137452,b2353,FIT4MOM Las Vegas,Las Vegas,89119,11,36.0671511,-115.1757889,5.0,6605 S Las Vegas Blvd,0,o-h-WpzS1id-Ffz-cC9y1Q,Slice of Vegas,Las Vegas,89119,210,36.092089,-115.172992,4.3,3930 Las Vegas Boulevard S$*$ Las Vegas$*$ NV 89119,16982662,0
45686,45686,a139038,b2328,Chase Bank,Las Vegas,89119,4,36.100816,-115.121698,2.0,2250 E Tropicana Ave$*$ Ste 5,0,hefPe-4Dtx2KlimU4XPAhQ,Texas de Brazil,Las Vegas,89119,763,36.0701369,-115.1753018,4.4,6533 S Las Vegas Blvd$*$ Las Vegas$*$ NV 89119,16981172,0
45835,45835,a141698,b2353,EZ Travel Las Vegas,Las Vegas,89119,8,36.0967523,-115.1676859,1.0,105 E Reno$*$ Ste 8,0,#NAME?,Slice of Vegas,Las Vegas,89119,210,36.092089,-115.172992,4.3,3930 Las Vegas Boulevard S$*$ Las Vegas$*$ NV 89119,16982662,0
46351,46351,a22105,b461,Gates & Brovi,Madison,53711,130,43.052916,-89.435789,3.5,3502 Monroe St,0,YgBQEX8dB27FdYj7PaPhPw,Great Dane Pub & Brewing,Madison,53711,244,43.0187,-89.4223,4.0,2980 Cahill Main$*$ Fitchburg$*$ WI 53711,17501779,0
46378,46378,a22369,b419,Pizza Pit Extreme,Madison,53711,26,43.06713,-89.414179,3.0,1614 Monroe St,0,Ev142kLmV_ASI9iAl-KfKA,Pizza Brutta,Madison,53711,297,43.065207,-89.416452,4.3,1805 Monroe St$*$ Madison$*$ WI 53711,17503392,0
46427,46427,a29781,b419,Pizza Bella,Madison,53711,7,43.0676374,-89.4105418,1.5,1437 Regent St,0,dK7sFWvfEQ0Anuz7ch4t8A,Pizza Brutta,Madison,53711,297,43.065207,-89.416452,4.3,1805 Monroe St$*$ Madison$*$ WI 53711,17503392,0
46473,46473,a38463,b490,Chang Jiang Restaurant,Madison,53711,25,43.0319838,-89.4781127,3.5,5710 Raymond Rd,0,TTVXY5vOJDqC0_Je8UhK8A,Takara Japanese Restaurant,Madison,53711,221,43.0502,-89.4736,3.9,696 S Whitney Way$*$ Madison$*$ WI 53711,17502687,0
46487,46487,a39705,b490,Faouzi's Restaurant,Madison,53711,5,43.0345247,-89.445519,4.0,4245 W Beltline Hwy,0,SPFu6EgRI8PwVuoHEzCgdw,Takara Japanese Restaurant,Madison,53711,221,43.0502,-89.4736,3.9,696 S Whitney Way$*$ Madison$*$ WI 53711,17502687,0
46505,46505,a41776,b461,JT Whitney's Pub & Brewery,Madison,53711,5,43.0515656,-89.4737468,3.5,674 S Whitney Way,0,lwGYjicqmjZqbPq_ZPS3_w,Great Dane Pub & Brewing,Madison,53711,244,43.0187,-89.4223,4.0,2980 Cahill Main$*$ Fitchburg$*$ WI 53711,17501779,0
46609,46609,a49498,b419,Pizza Brutta,Madison,53711,264,43.0651567,-89.4164023,4.5,1805 Monroe St,0,kPr9rYEkGwbRLgUHvKljQQ,Pizza Brutta,Madison,53711,297,43.065207,-89.416452,4.3,1805 Monroe St$*$ Madison$*$ WI 53711,17503392,0
46672,46672,a57165,b419,Pizza Hut,Madison,53711,4,43.0144173,-89.4274219,2.0,2935 S Fish Hatchery Rd Ste 1,0,_xcDTH9G4LDqADfpmok6SQ,Pizza Brutta,Madison,53711,297,43.065207,-89.416452,4.3,1805 Monroe St$*$ Madison$*$ WI 53711,17503392,0
46687,46687,a58710,b461,The Great Dane Pub & Brewing Co.,Fitchburg,53711,5,43.0178041,-89.4233394,3.0,2980 Cahill Main,0,oIVc4K0jQNRtBKbIQmEqcQ,Great Dane Pub & Brewing,Madison,53711,244,43.0187,-89.4223,4.0,2980 Cahill Main$*$ Fitchburg$*$ WI 53711,17501779,0
46689,46689,a58710,b489,The Great Dane Pub & Brewing Co.,Fitchburg,53711,5,43.0178041,-89.4233394,3.0,2980 Cahill Main,0,oIVc4K0jQNRtBKbIQmEqcQ,Vintage Brewing Co.,Madison,53711,228,43.05096,-89.47391,3.9,674 S Whitney Way$*$ Madison$*$ WI 53711,17503491,0
46936,46936,a72299,b403,McKee Farms Park,Fitchburg,53711,5,43.0137453,-89.4316395,4.0,2930 Chapel Valley Rd,0,QTKEx-BTjSoQXiCKCbSU6A,Mickies Dairy Bar,Madison,53711,814,43.0676,-89.4128,4.7,1511 Monroe St$*$ Madison$*$ WI 53711,17502401,0
46949,46949,a72877,b490,Liliana's Restaurant,Fitchburg,53711,186,43.015442,-89.430002,4.0,2951 Triverton Pike,0,aqCOsEhjCHVqaFPRt8MCRg,Takara Japanese Restaurant,Madison,53711,221,43.0502,-89.4736,3.9,696 S Whitney Way$*$ Madison$*$ WI 53711,17502687,0
47007,47007,a78675,b411,Brasserie V,Madison,53711,263,43.0640503,-89.4180168,4.0,1923 Monroe St,0,Dcj69NZJnbJhK-YHP_nULA,Brasserie V,Madison,53711,487,43.064109,-89.41809,4.4,1923 Monroe St.$*$ Madison$*$ WI 53711,17503366,0
47047,47047,a79639,b490,Copper Top Restaurant,Madison,53711,22,43.04541242,-89.47394002,3.0,5401 W Beltline Hwy,0,3uwz62lHoUqKXDDbwErRfQ,Takara Japanese Restaurant,Madison,53711,221,43.0502,-89.4736,3.9,696 S Whitney Way$*$ Madison$*$ WI 53711,17502687,0
47418,47418,a107134,b490,Yen Ching Restaurant,Madison,53711,10,43.0380618,-89.4515848,4.0,1300 S Midvale Blvd,0,dpblBM884TnUQQ5xusFMlg,Takara Japanese Restaurant,Madison,53711,221,43.0502,-89.4736,3.9,696 S Whitney Way$*$ Madison$*$ WI 53711,17502687,0
47453,47453,a109701,b490,Sukhothai Restaurant,Madison,53711,3,43.0676088,-89.4106872,4.0,1439 Regent St,0,nFWrKmBJvzbHZT090D-Mtg,Takara Japanese Restaurant,Madison,53711,221,43.0502,-89.4736,3.9,696 S Whitney Way$*$ Madison$*$ WI 53711,17502687,0
47524,47524,a116699,b403,Mickies Dairy Bar,Madison,53711,241,43.067439,-89.4129202,4.0,1511 Monroe St,0,uoUa8ugZLrly0bA268IqEg,Mickies Dairy Bar,Madison,53711,814,43.0676,-89.4128,4.7,1511 Monroe St$*$ Madison$*$ WI 53711,17502401,0
47831,47831,a134373,b490,Laredo's Mexican Restaurant,Fitchburg,53711,39,43.0144343,-89.4274935,3.0,2935 S Fish Hatchery Rd,0,0rrq-d9iNL2rrLET61v7jg,Takara Japanese Restaurant,Madison,53711,221,43.0502,-89.4736,3.9,696 S Whitney Way$*$ Madison$*$ WI 53711,17502687,0
47936,47936,a14191,b585,Lon's At the Hermosa,Paradise Valley,85253,296,33.518225,-112.004898,4.0,5532 N Palo Cristi Rd,0,oj8qk3W7O9oq15VIs-vYJQ,Lon's - The Hermosa Inn,Phoenix,85253,225,33.518368,-112.004635,4.0,The Hermosa Inn$*$ 5532 North Palo Cristi Road$*$ Biltmore/Arcadia$*$ Phoenix$*$ AZ 85253,17027592,0
48090,48090,a79663,b585,The Hermosa Inn,Paradise Valley,85253,33,33.518225,-112.004898,4.5,5532 N Palo Cristi Rd,0,f-KUpaw28JfS6_a_Cv9zWQ,Lon's - The Hermosa Inn,Phoenix,85253,225,33.518368,-112.004635,4.0,The Hermosa Inn$*$ 5532 North Palo Cristi Road$*$ Biltmore/Arcadia$*$ Phoenix$*$ AZ 85253,17027592,0
48354,48354,a5476,b1555,Istanbul Grille,Pittsburgh,15213,7,40.452039,-79.952326,4.5,305 N Craig St,0,RyZ3dMJWuFMs2S7zw2C0Zg,Union Grill,Pittsburgh,15213,754,40.444846,-79.948567,4.3,413 S Craig St$*$ Pittsburgh$*$ PA 15213,17037604,0
48614,48614,a34997,b1555,India on Wheels,Pittsburgh,15213,33,40.4444572,-79.9548779,4.0,4422 Bigelow Blvd,0,KCxdy3cm7H0jXnDhhPvBYw,Union Grill,Pittsburgh,15213,754,40.444846,-79.948567,4.3,413 S Craig St$*$ Pittsburgh$*$ PA 15213,17037604,0
48646,48646,a39230,b1584,Hello Bistro,Pittsburgh,15213,142,40.4407643,-79.9581044,3.5,3605 Forbes Ave,0,pCwOCE-cycl6cMEa9O6bZQ,Legume Bistro,Pittsburgh,15213,693,40.450256,-79.950827,4.2,214 N Craig Street$*$ Pittsburgh$*$ PA 15213,17036767,0
48842,48842,a50650,b1510,Eye Candy Tattoos,Pittsburgh,15213,5,40.4523903,-79.9522099,5.0,314 N Craig St,0,3q9m2KpNP3-QpbJt84UHOg,Spice Island Tea House,Pittsburgh,15213,1109,40.440271,-79.956363,4.6,253 Atwood St$*$ Pittsburgh$*$ PA 15213,17037440,0
48884,48884,a51107,b1555,Chipotle Mexican Grill,Pittsburgh,15213,45,40.4409137,-79.9578984,3.5,3615 Forbes Ave,0,VFv7NcPW9ajUTLleJ8wOQA,Union Grill,Pittsburgh,15213,754,40.444846,-79.948567,4.3,413 S Craig St$*$ Pittsburgh$*$ PA 15213,17037604,0
49266,49266,a84399,b1584,Legume,Pittsburgh,15213,301,40.4503566,-79.9508477,4.5,214 N Craig St,0,vg55SAkrEmuHpWfIMtJjBQ,Legume Bistro,Pittsburgh,15213,693,40.450256,-79.950827,4.2,214 N Craig Street$*$ Pittsburgh$*$ PA 15213,17036767,0
49315,49315,a93648,b1582,Fuel & Fuddle,Pittsburgh,15213,227,40.4412454,-79.9566016,3.5,212 Oakland Ave,0,ehaoreB8IzKY8KvRGqxcUA,Fuel & Fuddle,Pittsburgh,15213,897,40.441192,-79.956663,4.2,212 Oakland Ave$*$ Pittsburgh$*$ PA 15213,17036469,0
49377,49377,a98037,b1510,Spice Island Tea House,Pittsburgh,15213,259,40.4400334,-79.9559915,4.0,253 Atwood St,0,Fpm3WvqtrAg2ueh_4pz7iA,Spice Island Tea House,Pittsburgh,15213,1109,40.440271,-79.956363,4.6,253 Atwood St$*$ Pittsburgh$*$ PA 15213,17037440,0
49419,49419,a99468,b1555,Tandoor Indian Grill,Pittsburgh,15213,24,40.4517965,-79.9527148,3.0,4519 Centre Ave,0,4KBLVr3PYilTUUWj3DWwVw,Union Grill,Pittsburgh,15213,754,40.444846,-79.948567,4.3,413 S Craig St$*$ Pittsburgh$*$ PA 15213,17037604,0
49484,49484,a102961,b1555,Union Grill,Pittsburgh,15213,261,40.4448085,-79.9484396,4.0,413 S Craig St,0,e9KXojla4OuVP7qcC5LNsg,Union Grill,Pittsburgh,15213,754,40.444846,-79.948567,4.3,413 S Craig St$*$ Pittsburgh$*$ PA 15213,17037604,0
49497,49497,a104143,b1510,The Doner Kebab House,Pittsburgh,15213,4,40.4364494,-79.9544242,3.5,424 Semple St,0,mKoi3QV2d45Qm3iWt1aa3w,Spice Island Tea House,Pittsburgh,15213,1109,40.440271,-79.956363,4.6,253 Atwood St$*$ Pittsburgh$*$ PA 15213,17037440,0
49538,49538,a105877,b1538,Dave & Andy's,Pittsburgh,15213,197,40.4410237,-79.9575173,4.5,207 Atwood St,0,Hz1F5uruPe1kCsf5PIA6Sg,Dave & Andy's,Pittsburgh,15213,697,40.440987,-79.957225,4.4,207 Atwood St$*$ Pittsburgh$*$ PA 15213,17036293,0
49592,49592,a109081,b1510,Asia Tea House,Pittsburgh,15213,33,40.44272405,-79.95281349,3.0,4230 Forbes Ave,0,K6AKMjAdCSe8xllsbyeL9Q,Spice Island Tea House,Pittsburgh,15213,1109,40.440271,-79.956363,4.6,253 Atwood St$*$ Pittsburgh$*$ PA 15213,17037440,0
49602,49602,a109245,b1510,KBOX Karaoke House,Pittsburgh,15213,19,40.4458765,-79.9490704,4.0,214 S Craig St,0,z2JLv18B4jqiE2U8s9SWPw,Spice Island Tea House,Pittsburgh,15213,1109,40.440271,-79.956363,4.6,253 Atwood St$*$ Pittsburgh$*$ PA 15213,17037440,0
49892,49892,a126740,b1510,Kanda House,Pittsburgh,15213,7,40.451222,-79.9515915,2.5,258 N Craig St,0,QiZCMGZEwVtg1ybOKybLhQ,Spice Island Tea House,Pittsburgh,15213,1109,40.440271,-79.956363,4.6,253 Atwood St$*$ Pittsburgh$*$ PA 15213,17037440,0
49934,49934,a133273,b1555,Chipotle Mexican Grill,Pittsburgh,15213,37,40.4542333,-79.9474223,3.5,4800 Baum Blvd,0,dCPyV8XCEyE7pyUgzOCDKA,Union Grill,Pittsburgh,15213,754,40.444846,-79.948567,4.3,413 S Craig St$*$ Pittsburgh$*$ PA 15213,17037604,0
50146,50146,a27126,b1567,Armstrong's Express,Bridgeville,15017,17,40.356976,-80.112662,4.5,609 Washington Ave,0,j1CRQHz60LoLBgfoS0loqg,Armstrong's Express,Pittsburgh,15017,387,40.35712,-80.112706,4.3,609 Washington Ave$*$ Bridgeville$*$ PA 15017,17037938,0
50237,50237,a31047,b1595,Taco Bell,Bridgeville,15017,6,40.369169,-80.101638,2.0,1025 Washington Pike,0,sro9D0YFB-FJyRVLQls1QA,Cucina Bella,Pittsburgh,15017,571,40.349499,-80.100212,4.2,1200 Pennsylvania Ave$*$ Bridgeville$*$ PA 15017,17042274,0
50285,50285,a37173,b1595,Cucina Bella,Bridgeville,15017,57,40.3496337,-80.0994194,4.0,1200 Pennsylvania Ave,0,cKbPGglAjIGG6MeVy7n8XQ,Cucina Bella,Pittsburgh,15017,571,40.349499,-80.100212,4.2,1200 Pennsylvania Ave$*$ Bridgeville$*$ PA 15017,17042274,0
50311,50311,a38433,b1587,Country Style Pizza,Bridgeville,15017,13,40.3562966,-80.1105925,4.5,536 Dewey Ave,0,qWcaGio9JsqrvgmQiIRtIQ,Country Style Pizza Sandwiches Salads,Pittsburgh,15017,393,40.356283,-80.110533,4.2,536 Dewey Ave$*$ Bridgeville$*$ PA 15017,17037862,0
50404,50404,a101492,b1592,Shouf's Cafe,Bridgeville,15017,49,40.3631094,-80.1104585,4.5,200 Washington Ave,0,X8KLsPEgLe4FuJwRU0tPag,Shouf's Cafe,Pittsburgh,15017,421,40.36311,-80.110292,4.2,200 Washington Ave$*$ Bridgeville$*$ PA 15017,17037747,0
50458,50458,a108993,b1567,New Dragon Express,Bridgeville,15017,38,40.3483469,-80.1115437,4.0,3105 Washington Pike,0,rQ6C54q1N2iq9iDKSA3QGA,Armstrong's Express,Pittsburgh,15017,387,40.35712,-80.112706,4.3,609 Washington Ave$*$ Bridgeville$*$ PA 15017,17037938,0
50688,50688,a5449,b513,Nook Kitchen,Phoenix,85018,346,33.49488969,-112.0029784,4.5,3623 E Indian School Rd,0,hTsZSiftorNUFb1VaHCHHg,Chelsea's Kitchen,Phoenix,85018,952,33.51134,-111.995464,4.4,5040 North 40th Street$*$ Biltmore/Arcadia$*$ Phoenix$*$ AZ 85018,17025770,0
50770,50770,a6653,b552,The Palms,Phoenix,85018,4,33.502822,-111.990298,3.0,4304 E Campbell Ave,0,lWTAyaM5MyvGqKujuVlOYQ,The Vig,Phoenix,85018,349,33.493931,-111.995324,4.1,4041 N 40th St$*$ Phoenix$*$ AZ 85018,17029878,0
50956,50956,a8782,b510,La Grande Orange Grocery,Phoenix,85018,693,33.50231263,-111.9957522,4.0,4410 N 40th St,0,D3dAx-QW_uuClz4MambeHA,La Grande Orange Grocery,Phoenix,85018,736,33.501531,-111.995564,4.5,4410 North 40th Street$*$ Biltmore/Arcadia$*$ Phoenix$*$ AZ 85018,17027423,0
50957,50957,a8782,b511,La Grande Orange Grocery,Phoenix,85018,693,33.50231263,-111.9957522,4.0,4410 N 40th St,0,D3dAx-QW_uuClz4MambeHA,La Grande Orange Pizzeria,Phoenix,85018,760,33.501531,-111.995564,4.5,4410 N 40th St$*$ Phoenix$*$ AZ 85018,17027424,0
51228,51228,a14517,b513,Children's Dental Land,Phoenix,85018,3,33.4806193,-112.0011647,1.0,3722 E Thomas Rd,0,OEDUwcrPDGoCY4kfRJ-YzQ,Chelsea's Kitchen,Phoenix,85018,952,33.51134,-111.995464,4.4,5040 North 40th Street$*$ Biltmore/Arcadia$*$ Phoenix$*$ AZ 85018,17025770,0
51609,51609,a23841,b570,Integrity Valet,Phoenix,85018,5,33.494967,-111.99041,4.0,4214 E Indian School Rd,0,_oDRJsUtkOWfAtPQ81LB_Q,Desert Jade,Phoenix,85018,239,33.495063,-112.012475,4.1,3215 E Indian School Rd$*$ Phoenix$*$ AZ 85018,17026165,0
51780,51780,a24841,b570,Terra Java,Phoenix,85018,44,33.4951559,-112.0033938,3.5,3619 E Indian School Rd,0,tuv-XKXejzGNzkRqNFCKiQ,Desert Jade,Phoenix,85018,239,33.495063,-112.012475,4.1,3215 E Indian School Rd$*$ Phoenix$*$ AZ 85018,17026165,0
51841,51841,a25184,b552,The Stand,Phoenix,85018,645,33.49539948,-112.005249,4.0,3538 E Indian School Rd,0,Wc9UpJhOcdSj7olZkz7SJA,The Vig,Phoenix,85018,349,33.493931,-111.995324,4.1,4041 N 40th St$*$ Phoenix$*$ AZ 85018,17029878,0
52041,52041,a26593,b570,Chestnut Lane,Phoenix,85018,21,33.5092093,-111.9885861,4.0,4225 E Camelback Rd,0,zSwcoOLMLuTho6ZpCZrQwg,Desert Jade,Phoenix,85018,239,33.495063,-112.012475,4.1,3215 E Indian School Rd$*$ Phoenix$*$ AZ 85018,17026165,0
52188,52188,a26947,b504,Dental Design of Arcadia,Phoenix,85018,53,33.4881333,-111.9604348,5.0,3409 N 56th St$*$ Ste A,0,wFWyKXpsK22_XJ25scFV1w,Postino Arcadia,Phoenix,85018,1142,33.502363,-111.996517,4.8,3939 East Campbell Avenue$*$ Biltmore/Arcadia$*$ Phoenix$*$ AZ 85018,17028658,0
52305,52305,a27228,b504,North Italia,Phoenix,85018,507,33.50903108,-111.9949189,4.0,North Arcadia$*$ 4925 N 40th St,0,wTjvgkUJMVWrYed9mXdQjg,Postino Arcadia,Phoenix,85018,1142,33.502363,-111.996517,4.8,3939 East Campbell Avenue$*$ Biltmore/Arcadia$*$ Phoenix$*$ AZ 85018,17028658,0
52435,52435,a27777,b552,The Way,Phoenix,85018,8,33.480409,-111.979862,5.0,4700 E Thomas Rd$*$ Ste 100,0,eQZJj-gxNn9BBlVZaBAoLg,The Vig,Phoenix,85018,349,33.493931,-111.995324,4.1,4041 N 40th St$*$ Phoenix$*$ AZ 85018,17029878,0
52778,52778,a28468,b558,Fenix Eatery & Bar,Phoenix,85018,10,33.5098007,-111.9965162,3.5,3943 E Camelback Rd,0,diw9UvW8mE24RGs-NXB_Tw,OHSO Eatery + Nanobrewery,Phoenix,85018,200,33.495018,-111.975898,4.1,4900 East Indian School Road$*$ Phoenix$*$ AZ 85018,17033008,0
53154,53154,a30564,b513,Chelsea's Kitchen,Phoenix,85018,1012,33.5112538,-111.9956517,4.0,5040 N 40th St,0,IsoLzudHC50oJLiEWpwV-w,Chelsea's Kitchen,Phoenix,85018,952,33.51134,-111.995464,4.4,5040 North 40th Street$*$ Biltmore/Arcadia$*$ Phoenix$*$ AZ 85018,17025770,0
53260,53260,a30803,b510,La Grande Orange Pizzeria,Phoenix,85018,653,33.50205325,-111.9957802,4.5,4410 N 40th St,0,7cK9uEV09iPmsTqOqmY3kQ,La Grande Orange Grocery,Phoenix,85018,736,33.501531,-111.995564,4.5,4410 North 40th Street$*$ Biltmore/Arcadia$*$ Phoenix$*$ AZ 85018,17027423,0
53261,53261,a30803,b511,La Grande Orange Pizzeria,Phoenix,85018,653,33.50205325,-111.9957802,4.5,4410 N 40th St,0,7cK9uEV09iPmsTqOqmY3kQ,La Grande Orange Pizzeria,Phoenix,85018,760,33.501531,-111.995564,4.5,4410 N 40th St$*$ Phoenix$*$ AZ 85018,17027424,0
53382,53382,a31577,b570,Desert Jade,Phoenix,85018,178,33.494918,-112.012263,4.0,3215 E Indian School Rd,0,tFcmrGLZNEymSnijoTPmqw,Desert Jade,Phoenix,85018,239,33.495063,-112.012475,4.1,3215 E Indian School Rd$*$ Phoenix$*$ AZ 85018,17026165,0
53406,53406,a31786,b513,Adela's Italian,Phoenix,85018,138,33.47985225,-111.9939478,4.5,4041 E Thomas Rd$*$ Ste 107,0,_e3rChyednoh47n2cjGv2w,Chelsea's Kitchen,Phoenix,85018,952,33.51134,-111.995464,4.4,5040 North 40th Street$*$ Biltmore/Arcadia$*$ Phoenix$*$ AZ 85018,17025770,0
53499,53499,a34442,b570,Beckett's Table,Phoenix,85018,716,33.49479582,-112.001606,4.0,3717 E Indian School Rd,0,k1c_bC3DK6mKg797vH1T8w,Desert Jade,Phoenix,85018,239,33.495063,-112.012475,4.1,3215 E Indian School Rd$*$ Phoenix$*$ AZ 85018,17026165,0
53537,53537,a34678,b596,Chicago Hamburger Co,Phoenix,85018,309,33.4947745,-112.0000425,4.0,3749 E Indian School Rd,0,UCqWJWovgeelP1OUI_L90w,Chicago Hamburger Co.,Phoenix,85018,204,33.494993,-112.00099,4.0,3749 E Indian School Rd$*$ Phoenix$*$ AZ 85018,17025788,0
53643,53643,a35306,b570,Seed Cafe,Phoenix,85018,61,33.495495,-111.9995627,4.5,3802 E Indian School Rd,0,rgZjPYSdZtS4xSTrx45PLQ,Desert Jade,Phoenix,85018,239,33.495063,-112.012475,4.1,3215 E Indian School Rd$*$ Phoenix$*$ AZ 85018,17026165,0
53862,53862,a37794,b504,The Whining Pig- Arcadia,Phoenix,85018,150,33.49572198,-112.0008417,4.5,3730 E Indian School Rd,0,XaPJUDiidOOdAMhTTIlTxw,Postino Arcadia,Phoenix,85018,1142,33.502363,-111.996517,4.8,3939 East Campbell Avenue$*$ Biltmore/Arcadia$*$ Phoenix$*$ AZ 85018,17028658,0
53959,53959,a38721,b593,Vincent's On Camelback,Phoenix,85018,124,33.5102548,-111.9962632,4.0,3930 E Camelback Rd$*$ Ste 202,0,Tl2nqtPXlLbAG3qkUYVM2g,Vincent on Camelback,Phoenix,85018,219,33.510081,-111.996757,4.0,3930 East Camelback Road$*$ Biltmore/Arcadia$*$ Phoenix$*$ AZ 85018,17029906,0
53990,53990,a38868,b511,Giant Rustic Pizza,Phoenix,85018,95,33.5090177,-111.996308,4.0,3945 E Camelback Rd,0,ETTzxqOcPuxMqV37y1uhdg,La Grande Orange Pizzeria,Phoenix,85018,760,33.501531,-111.995564,4.5,4410 N 40th St$*$ Phoenix$*$ AZ 85018,17027424,0
54000,54000,a38964,b513,Karey's Kitchen,Phoenix,85018,46,33.479852,-111.994039,4.0,4041 E Thomas Rd$*$ Ste 124,0,mIZRTk10-YmWRVaxhC1hjg,Chelsea's Kitchen,Phoenix,85018,952,33.51134,-111.995464,4.4,5040 North 40th Street$*$ Biltmore/Arcadia$*$ Phoenix$*$ AZ 85018,17025770,0
54686,54686,a41966,b558,O.H.S.O. Eatery + NanoBrewery,Phoenix,85018,927,33.495018,-111.975898,4.0,4900 E Indian School Rd,0,mnwRtuVQEsIUomBchu0gwg,OHSO Eatery + Nanobrewery,Phoenix,85018,200,33.495018,-111.975898,4.1,4900 East Indian School Road$*$ Phoenix$*$ AZ 85018,17033008,0
54960,54960,a42851,b504,Los Armandos,Phoenix,85018,28,33.480391,-111.978627,3.0,4732 E Thomas Rd,0,aYlZVqlqf8QRd9EW0iRC4w,Postino Arcadia,Phoenix,85018,1142,33.502363,-111.996517,4.8,3939 East Campbell Avenue$*$ Biltmore/Arcadia$*$ Phoenix$*$ AZ 85018,17028658,0
55178,55178,a43419,b511,Papa John's Pizza,Phoenix,85018,16,33.50131704,-111.9844446,2.5,4501 E Thomas Rd$*$ Ste 127,0,urgviU4CGLGVLKTahwuzVg,La Grande Orange Pizzeria,Phoenix,85018,760,33.501531,-111.995564,4.5,4410 N 40th St$*$ Phoenix$*$ AZ 85018,17027424,0
55212,55212,a43613,b504,Studio Adriana,Phoenix,85018,11,33.5107015,-111.9863975,5.0,4515 N 32nd St$*$ Ste 200,0,52ZQ9A6PTJKJ5amRJSbEDA,Postino Arcadia,Phoenix,85018,1142,33.502363,-111.996517,4.8,3939 East Campbell Avenue$*$ Biltmore/Arcadia$*$ Phoenix$*$ AZ 85018,17028658,0
55234,55234,a43676,b552,The Grind,Phoenix,85018,405,33.5089872,-111.9957489,3.5,3961 E Camelback Rd,0,siXCBrVFOXicbM2R-33-8w,The Vig,Phoenix,85018,349,33.493931,-111.995324,4.1,4041 N 40th St$*$ Phoenix$*$ AZ 85018,17029878,0
55338,55338,a44692,b504,Bertie's of Arcadia,Phoenix,85018,36,33.4797564,-111.9941067,4.0,4041 E Thomas Rd,0,Rd2ydAru-a0hmPAw_-mmeg,Postino Arcadia,Phoenix,85018,1142,33.502363,-111.996517,4.8,3939 East Campbell Avenue$*$ Biltmore/Arcadia$*$ Phoenix$*$ AZ 85018,17028658,0
55804,55804,a64228,b593,Vincent's Saturday Camelback Market,Phoenix,85018,32,33.5104384,-111.9962604,4.5,3930 E Camelback Rd,0,7ZV8nQj4a6wbVqLObze3DA,Vincent on Camelback,Phoenix,85018,219,33.510081,-111.996757,4.0,3930 East Camelback Road$*$ Biltmore/Arcadia$*$ Phoenix$*$ AZ 85018,17029906,0
56548,56548,a104501,b552,The Vig,Phoenix,85018,575,33.494489,-111.995106,4.0,4041 N 40th St,0,flE7Sn2JGs0n3SAtaep6Zw,The Vig,Phoenix,85018,349,33.493931,-111.995324,4.1,4041 N 40th St$*$ Phoenix$*$ AZ 85018,17029878,0
56762,56762,a105208,b511,My Slice of the Pie Pizzeria,Phoenix,85018,158,33.49566205,-112.0010076,4.5,3724 E Indian School Rd,0,NeDqVEiin0q-FxCvOKiERw,La Grande Orange Pizzeria,Phoenix,85018,760,33.501531,-111.995564,4.5,4410 N 40th St$*$ Phoenix$*$ AZ 85018,17027424,0
56890,56890,a106437,b552,On The Grill,Phoenix,85018,4,33.479889,-111.997771,4.0,3923 E Thomas Rd,0,QkTnoDfl7-cLQEAW9TqMQQ,The Vig,Phoenix,85018,349,33.493931,-111.995324,4.1,4041 N 40th St$*$ Phoenix$*$ AZ 85018,17029878,0
57507,57507,a114523,b504,Redemption Arcadia,Phoenix,85018,8,33.51036973,-112.0097906,4.0,3330 E Camelback Rd,0,t5E00feZ15wN_AVNCgzWLw,Postino Arcadia,Phoenix,85018,1142,33.502363,-111.996517,4.8,3939 East Campbell Avenue$*$ Biltmore/Arcadia$*$ Phoenix$*$ AZ 85018,17028658,0
57551,57551,a115169,b596,Chicago Gyros,Phoenix,85018,62,33.4948197,-111.9798208,4.0,4730 E Indian School$*$ Ste 117,0,Qng9lEqWA9uTtm6oq2rZuw,Chicago Hamburger Co.,Phoenix,85018,204,33.494993,-112.00099,4.0,3749 E Indian School Rd$*$ Phoenix$*$ AZ 85018,17025788,0
57556,57556,a115285,b552,The Henry,Phoenix,85018,716,33.508841,-111.9843047,4.0,4455 E Camelback Rd,0,LelAlfuj5oVRF9CQdWLsNQ,The Vig,Phoenix,85018,349,33.493931,-111.995324,4.1,4041 N 40th St$*$ Phoenix$*$ AZ 85018,17029878,0
57595,57595,a116081,b593,Capri on Camelback,Phoenix,85018,44,33.5118839,-111.9949838,1.5,5115 N 40th St,0,L2AXJIq3S50lE-tZt9MGdA,Vincent on Camelback,Phoenix,85018,219,33.510081,-111.996757,4.0,3930 East Camelback Road$*$ Biltmore/Arcadia$*$ Phoenix$*$ AZ 85018,17029906,0
57633,57633,a116688,b504,Postino Arcadia,Phoenix,85018,1124,33.5021111,-111.9963386,4.5,3939 E Campbell Ave,0,u-SJ5QUwrNquL9VnXwl8cg,Postino Arcadia,Phoenix,85018,1142,33.502363,-111.996517,4.8,3939 East Campbell Avenue$*$ Biltmore/Arcadia$*$ Phoenix$*$ AZ 85018,17028658,0
57775,57775,a40323,b2371,Sushi Tachi,North Las Vegas,89084,306,36.27607546,-115.1778464,3.5,2745 W Centennial Pkwy$*$ Ste 130,0,xrBQKZbhJMCtaZxeJ0tzTQ,Sushi Tachi,Las Vegas,89084,271,36.276388,-115.178042,4.2,2745 W Centennial Pkwy #130$*$ North Las Vegas$*$ NV 89084,16981349,0
57881,57881,a347,b1532,7-Eleven,Pittsburgh,15222,3,40.4425995,-80.0001807,2.0,643 Liberty Avenue,0,4nJTFvIDmIkgvwf36XruOg,Eleven,Pittsburgh,15222,1310,40.445903,-79.99342,4.4,1150 Smallman St$*$ Pittsburgh$*$ PA 15222,17036383,0
57946,57946,a1514,b1577,Frost & Co Diamonds,Pittsburgh,15222,4,40.4427108,-79.9988724,3.0,717 Liberty Ave$*$ Ste 212,0,dQmWk3dqZW3urWemHmjVAA,Meat & Potatoes,Pittsburgh,15222,1865,40.4431017,-80.0012236,4.2,649 Penn Ave$*$ Pittsburgh$*$ PA 15222,17042327,0
57998,57998,a3447,b1597,Edgar Tacos Stand,Pittsburgh,15222,40,40.455585,-79.977913,5.0,2627 Penn Ave,0,TcCWYYL6FxBTT6KrxabwRg,Edgar's Tacos,Pittsburgh,15222,335,40.4514733,-79.9834212,4.1,2023 Penn Ave$*$ Pittsburgh$*$ PA 15222,17041732,0
58199,58199,a6999,b1512,Andy's Sushi Bar,Pittsburgh,15222,50,40.450111,-79.9858749,4.0,1711 Penn Ave,0,1LUaZFVMEjodl1tbAGF3sQ,Wholey's Fish Market,Pittsburgh,15222,1034,40.449952,-79.985985,4.6,1711 Penn Ave$*$ Pittsburgh$*$ PA 15222,17037681,0
58256,58256,a8649,b1577,Bella Notte,Pittsburgh,15222,103,40.4508375,-79.9839077,3.5,1914 Penn Ave,0,JTKzGJvIK9yuoUf-erV2qQ,Meat & Potatoes,Pittsburgh,15222,1865,40.4431017,-80.0012236,4.2,649 Penn Ave$*$ Pittsburgh$*$ PA 15222,17042327,0
58767,58767,a22019,b1589,Mexico City,Pittsburgh,15222,36,40.4375833,-80.000437,4.0,111 Smithfield St,0,#NAME?,Enrico Biscotti,Pittsburgh,15222,501,40.451189,-79.983623,4.2,2022 Penn Ave$*$ Pittsburgh$*$ PA 15222,17036389,0
58849,58849,a27503,b1512,Two Louie's Market,Pittsburgh,15222,19,40.4464398,-79.9917383,4.5,1233 Penn Ave,0,UPKWR2kaOne5d4AmdqdZlg,Wholey's Fish Market,Pittsburgh,15222,1034,40.449952,-79.985985,4.6,1711 Penn Ave$*$ Pittsburgh$*$ PA 15222,17037681,0
58999,58999,a32222,b1512,Original Fish Market,Pittsburgh,15222,76,40.4441681,-79.994852,2.5,1001 Liberty Ave,0,JVJ9v-gFH68m6hA1NyQmbg,Wholey's Fish Market,Pittsburgh,15222,1034,40.449952,-79.985985,4.6,1711 Penn Ave$*$ Pittsburgh$*$ PA 15222,17037681,0
59339,59339,a46894,b1512,Mahoney's Restaurant,Pittsburgh,15222,31,40.4436238,-79.9963285,2.5,949 Liberty Ave,0,Ei4voH2C7JgCyFmABY_CfA,Wholey's Fish Market,Pittsburgh,15222,1034,40.449952,-79.985985,4.6,1711 Penn Ave$*$ Pittsburgh$*$ PA 15222,17037681,0
59467,59467,a48537,b1589,Mexico City,Pittsburgh,15222,22,40.43978,-80.001441,3.0,409 Wood St,0,Quh8Fjutyw15B6ZGZEf2gA,Enrico Biscotti,Pittsburgh,15222,501,40.451189,-79.983623,4.2,2022 Penn Ave$*$ Pittsburgh$*$ PA 15222,17036389,0
59530,59530,a49532,b1516,Kaya,Pittsburgh,15222,463,40.4516553,-79.984218,4.0,2000 Smallman St,0,Ul6JwluSTm12PVDIqnNaTg,Kaya,Pittsburgh,15222,1837,40.451699,-79.984444,4.5,2000 Smallman St$*$ Pittsburgh$*$ PA 15222,17036710,0
59592,59592,a50847,b1533,P&G's Pamela's Diner,Pittsburgh,15222,344,40.4519715,-79.9836571,4.0,60 21 St,0,sc__kdcFV4IcNTfBx1707w,Pamela's P & G Diner,Pittsburgh,15222,978,40.452519,-79.984386,4.4,60 21st St$*$ Pittsburgh$*$ PA 15222,17037065,0
59612,59612,a51779,b1533,Deluca's Diner,Pittsburgh,15222,413,40.4515431,-79.9837258,4.0,2015 Penn Ave,0,oeW0vIYd3rUnAPgmD4fEFg,Pamela's P & G Diner,Pittsburgh,15222,978,40.452519,-79.984386,4.4,60 21st St$*$ Pittsburgh$*$ PA 15222,17037065,0
59614,59614,a51779,b1550,Deluca's Diner,Pittsburgh,15222,413,40.4515431,-79.9837258,4.0,2015 Penn Ave,0,oeW0vIYd3rUnAPgmD4fEFg,Deluca's,Pittsburgh,15222,1153,40.451356,-79.983915,4.3,2015 Penn Ave$*$ Pittsburgh$*$ PA 15222,17036305,0
59659,59659,a56050,b1512,Marty's Market,Pittsburgh,15222,135,40.4534962,-79.9822822,3.5,2301 Smallman St,0,bm8-Kriygv-R8DVCmKzoOw,Wholey's Fish Market,Pittsburgh,15222,1034,40.449952,-79.985985,4.6,1711 Penn Ave$*$ Pittsburgh$*$ PA 15222,17037681,0
59676,59676,a57401,b1577,Leaf & Bean,Pittsburgh,15222,38,40.4521039,-79.9818756,4.0,2200 Penn Ave,0,b4Atbd4V8UKEoXzhbL-o5g,Meat & Potatoes,Pittsburgh,15222,1865,40.4431017,-80.0012236,4.2,649 Penn Ave$*$ Pittsburgh$*$ PA 15222,17042327,0
59792,59792,a60900,b1533,Kelly O's Diner,Pittsburgh,15222,115,40.4540482,-79.9814381,4.0,2400 Smallman St,0,GGEeGKUez_pGqYXtk-sKvQ,Pamela's P & G Diner,Pittsburgh,15222,978,40.452519,-79.984386,4.4,60 21st St$*$ Pittsburgh$*$ PA 15222,17037065,0
59849,59849,a61784,b1512,Stan's Market,Pittsburgh,15222,15,40.4507487,-79.9848259,3.5,1809 Penn Ave,0,knHuM2uLP91WAgVqyVQglg,Wholey's Fish Market,Pittsburgh,15222,1034,40.449952,-79.985985,4.6,1711 Penn Ave$*$ Pittsburgh$*$ PA 15222,17037681,0
59901,59901,a62789,b1532,Eleven,Pittsburgh,15222,501,40.4460016,-79.9935003,4.0,1150 Smallman St,0,d2ZQRjuizstCTnicysmpMQ,Eleven,Pittsburgh,15222,1310,40.445903,-79.99342,4.4,1150 Smallman St$*$ Pittsburgh$*$ PA 15222,17036383,0
60029,60029,a64789,b1512,Robert Wholey and Co Fish Market,Pittsburgh,15222,175,40.450111,-79.9858749,4.0,1711 Penn Ave,0,hsRjct8UiUHU54B983GmcA,Wholey's Fish Market,Pittsburgh,15222,1034,40.449952,-79.985985,4.6,1711 Penn Ave$*$ Pittsburgh$*$ PA 15222,17037681,0
60045,60045,a64977,b1561,Chicken Latino,Pittsburgh,15222,143,40.45164977,-79.98317242,4.0,155 21st St,0,Chr3YCuvt2mD-BHgqeo-OA,Chicken Latino,Pittsburgh,15222,411,40.4516755,-79.9830955,4.3,155 21st St$*$ Pittsburgh$*$ PA 15222,17037721,0
60064,60064,a65498,b1550,Lucy's,Pittsburgh,15222,38,40.4524729,-79.9815138,4.5,2216 Penn Ave,0,im2J4GZZdEl7s4o21D7rgw,Deluca's,Pittsburgh,15222,1153,40.451356,-79.983915,4.3,2015 Penn Ave$*$ Pittsburgh$*$ PA 15222,17036305,0
60176,60176,a66398,b1577,Mahla & Co. Antiques,Pittsburgh,15222,8,40.4503391,-79.9867761,4.0,17th & Smallman St,0,zZuDZscQgFS8cgjK76t7WQ,Meat & Potatoes,Pittsburgh,15222,1865,40.4431017,-80.0012236,4.2,649 Penn Ave$*$ Pittsburgh$*$ PA 15222,17042327,0
60197,60197,a66695,b1589,The Enrico Biscotti,Pittsburgh,15222,128,40.4513158,-79.9832025,4.0,2022 Penn Ave,0,#NAME?,Enrico Biscotti,Pittsburgh,15222,501,40.451189,-79.983623,4.2,2022 Penn Ave$*$ Pittsburgh$*$ PA 15222,17036389,0
60201,60201,a66696,b1532,Eliza's Oven,Pittsburgh,15222,13,40.454311,-79.980494,4.5,2401 Penn Ave$*$ Stall 2,0,XxoVuGxIRg0e9RevFhWFag,Eleven,Pittsburgh,15222,1310,40.445903,-79.99342,4.4,1150 Smallman St$*$ Pittsburgh$*$ PA 15222,17036383,0
60231,60231,a67205,b1532,Seven,Pittsburgh,15222,11,40.4436301,-80.0007491,4.0,130 Seventh St,0,etJxsar4SgEDfvorgy902w,Eleven,Pittsburgh,15222,1310,40.445903,-79.99342,4.4,1150 Smallman St$*$ Pittsburgh$*$ PA 15222,17036383,0
60348,60348,a68757,b1597,Emporio Tobacco,Pittsburgh,15222,7,40.439204,-79.998642,3.5,410 Forbes Ave,0,ORjLfL63EC3y_u0rTGJY2g,Edgar's Tacos,Pittsburgh,15222,335,40.4514733,-79.9834212,4.1,2023 Penn Ave$*$ Pittsburgh$*$ PA 15222,17041732,0
61055,61055,a80238,b1561,Live Nation,Pittsburgh,15222,3,40.440696,-80.0096926,3.5,101 Commonwealth Pl,0,JATyVVafFGQUV06XQYKVKQ,Chicken Latino,Pittsburgh,15222,411,40.4516755,-79.9830955,4.3,155 21st St$*$ Pittsburgh$*$ PA 15222,17037721,0
61227,61227,a83289,b1589,Hello Bistro,Pittsburgh,15222,61,40.440093,-80.0008532,3.5,292 Forbes Ave,0,ZYL14FvffzTKU9BpXQt79Q,Enrico Biscotti,Pittsburgh,15222,501,40.451189,-79.983623,4.2,2022 Penn Ave$*$ Pittsburgh$*$ PA 15222,17036389,0
61533,61533,a88470,b1537,Gaucho Parrilla Argentina,Pittsburgh,15222,985,40.449043,-79.987573,4.5,1601 Penn Ave,0,u4sTiCzVeIHZY8OlaL346Q,Gaucho Parrilla Argentina,Pittsburgh,15222,465,40.449077,-79.987519,4.4,1607 Penn Ave$*$ Pittsburgh$*$ PA 15222,17042997,0
61768,61768,a92299,b1597,Bruegger's Bagels,Pittsburgh,15222,22,40.4381509,-80.0042481,2.5,Market Square$*$ 26 Market St,0,8mx_TpMhpFLdQi_K5aPdOg,Edgar's Tacos,Pittsburgh,15222,335,40.4514733,-79.9834212,4.1,2023 Penn Ave$*$ Pittsburgh$*$ PA 15222,17041732,0
61801,61801,a92942,b1532,7-Eleven,Pittsburgh,15222,4,40.4402842,-80.0009758,2.5,429 Wood St,0,rLk3eeSbcRBUMlC3j6bBkQ,Eleven,Pittsburgh,15222,1310,40.445903,-79.99342,4.4,1150 Smallman St$*$ Pittsburgh$*$ PA 15222,17036383,0
61832,61832,a93561,b1533,Carlo's Garage Winery,Pittsburgh,15222,3,40.4513158,-79.9832025,3.5,2022 Penn Ave,0,hFkY-4JhWPc2LDRj2eyBSA,Pamela's P & G Diner,Pittsburgh,15222,978,40.452519,-79.984386,4.4,60 21st St$*$ Pittsburgh$*$ PA 15222,17037065,0
61904,61904,a95887,b1550,Doubleday's,Pittsburgh,15222,24,40.4435521,-80.0022028,3.5,121 6th St,0,R06MTQpLNdsnr5wrCkMXfQ,Deluca's,Pittsburgh,15222,1153,40.451356,-79.983915,4.3,2015 Penn Ave$*$ Pittsburgh$*$ PA 15222,17036305,0
62068,62068,a97323,b1597,Nathan's Famous,Pittsburgh,15222,5,40.439226,-80.0017249,3.0,305 Wood St,0,lzjnPNA1ALVpWCo_ygRatw,Edgar's Tacos,Pittsburgh,15222,335,40.4514733,-79.9834212,4.1,2023 Penn Ave$*$ Pittsburgh$*$ PA 15222,17041732,0
63039,63039,a124725,b1512,I Made It Market,Pittsburgh,15222,7,40.4419281,-79.99793,4.5,623 Smithfield St,0,6N0AKJN3iEBRRituyVc-LQ,Wholey's Fish Market,Pittsburgh,15222,1034,40.449952,-79.985985,4.6,1711 Penn Ave$*$ Pittsburgh$*$ PA 15222,17037681,0
63056,63056,a125355,b1577,Meat & Potatoes,Pittsburgh,15222,1249,40.44314459,-80.00110379,4.0,649 Penn Ave,0,JLbgvGM4FXh9zNP4O5ZWjQ,Meat & Potatoes,Pittsburgh,15222,1865,40.4431017,-80.0012236,4.2,649 Penn Ave$*$ Pittsburgh$*$ PA 15222,17042327,0
63366,63366,a137821,b1577,Sol Pilates,Pittsburgh,15222,3,40.443611,-79.9980439,4.0,900 Penn Ave,0,VeYWXO1AaqIwpnyPUMckxQ,Meat & Potatoes,Pittsburgh,15222,1865,40.4431017,-80.0012236,4.2,649 Penn Ave$*$ Pittsburgh$*$ PA 15222,17042327,0
63762,63762,a55539,b1814,KINKA IZAKAYA BLOOR,Toronto,M5S 1Y6,326,43.665157,-79.410658,4.0,559 Bloor St W,0,CN5nuUQod0f8g3oh99qq0w,KINKA IZAKAYA BLOOR,Toronto,M5S 1Y6,850,43.66528611,-79.41060556,4.7,559 Bloor Street West$*$ ON M5S 1Y6,8907790,0
63953,63953,a9512,b467,La Mestiza,Madison,53719,141,43.056038,-89.4941951,4.0,6644 Odana Rd,0,wEisic-u9Yj543iYzfpAhw,La Mestiza,Madison,53719,200,43.0561,-89.4952,4.0,6644 Odana Road$*$ Madison$*$ WI 53719,17502327,0
64180,64180,a17744,b405,Thai Basil,Madison,53719,71,43.0322241,-89.4979918,4.0,6714 Raymond Rd,0,ERXnerHflh86VOYKAopLMw,Thai Noodles,Madison,53719,494,43.01524,-89.457519,4.6,5957 Mckee Rd$*$ Fitchburg$*$ WI 53719,17503422,0
64181,64181,a17744,b424,Thai Basil,Madison,53719,71,43.0322241,-89.4979918,4.0,6714 Raymond Rd,0,ERXnerHflh86VOYKAopLMw,The Nile,Madison,53719,250,43.053326,-89.485676,4.3,6119 Odana Road$*$ Madison$*$ WI 53719,17503651,0
64489,64489,a31312,b424,True Laser,Madison,53719,5,43.05509,-89.519181,3.5,8066 Watts Rd,0,MFLagLDZ5BkRmmATQG1rrg,The Nile,Madison,53719,250,43.053326,-89.485676,4.3,6119 Odana Road$*$ Madison$*$ WI 53719,17503651,0
64815,64815,a43051,b499,Sa-Bai Thong West,Madison,53719,95,43.0572311,-89.5000386,3.5,6802 Odana Rd,0,rdXAuI2fKilcf65W-QoASQ,Ginza of Tokyo West,Madison,53719,178,43.0567,-89.4973,3.9,6734 Odana Rd$*$ Madison$*$ WI 53719,17502221,0
64816,64816,a43051,b500,Sa-Bai Thong West,Madison,53719,95,43.0572311,-89.5000386,3.5,6802 Odana Rd,0,rdXAuI2fKilcf65W-QoASQ,Sa-Bai Thong,Madison,53719,151,43.057095,-89.500404,3.9,6802 Odana Rd$*$ Madison$*$ WI 53719,17504097,0
64964,64964,a47093,b405,Thai Noodles,Fitchburg,53719,80,43.01497392,-89.4578836,3.5,5957 Mckee Rd$*$ Ste 3,0,56KQVyOg8eGtwLIgrV51NA,Thai Noodles,Madison,53719,494,43.01524,-89.457519,4.6,5957 Mckee Rd$*$ Fitchburg$*$ WI 53719,17503422,0
