ID,name,address,city,zipcode,latitude,longitude,review_count,rating,zomato_id,yelp_id
b1,Katz's Delicatessen,205 East Houston Street$*$ New York$*$ NY 10002,New York City,10002,40.72232778,-73.98735,4292,4.9,16769546,0
b2,Lombardi's Pizza,32 Spring Street$*$ New York$*$ NY 10012,New York City,10012,40.721675,-73.99558889,2124,4.9,16771079,0
b3,Buddakan,75 9th Avenue$*$ New York$*$ NY 10011,New York City,10011,40.742232,-74.0055112,1519,4.9,16761344,0
b4,Shake Shack,691 8th Avenue$*$ New York$*$ NY 10036,New York City,10036,40.75873611,-73.98901389,941,4.9,16785398,0
b5,Shake Shack,366 Columbus Avenue W 77th Street$*$ New York$*$ NY 10024,New York City,10024,40.78072222,-73.97649444,1545,4.9,16783153,0
b6,Levain Bakery,167 W 74th Street$*$ New York$*$ NY 10023,New York City,10023,40.779512,-73.979726,498,4.9,16770824,0
b7,Ippudo,65 4th Avenue$*$ New York$*$ NY 10003,New York City,10003,40.73073611,-73.99068333,1362,4.8,16781875,0
b8,Shake Shack,Madison Square Park$*$ 23rd & Madison$*$ New York$*$ NY 10010,New York City,10010,40.7408681,-73.9879841,3386,4.8,16777384,0
b9,Pommes Frites,128 Macdougal Street$*$ New York$*$ NY 10012,New York City,10012,40.730031,-74.000162,1189,4.8,16775526,0
b10,Five Napkin Burger,630 9th Avenue$*$ New York$*$ NY 10036,New York City,10036,40.76026667,-73.99121111,1064,4.8,16782050,0
b11,S'Mac,345 E 12th Street$*$ New York$*$ NY 10003,New York City,10003,40.73036944,-73.98403889,1115,4.8,16776778,0
b12,The Door,16307 Baisley Boulevard$*$ Jamaica$*$ Queens$*$ NY 11434,New York City,11434,40.67991389,-73.77745833,667,4.8,16783140,0
b13,Momofuku Noodle Bar,171 1st Avenue$*$ New York$*$ NY 10003,New York City,10003,40.72914167,-73.98423889,1614,4.7,16781904,0
b14,Burger Joint,Le Parker Meridien Hotel$*$ 119 W 56th Street$*$ New York$*$ NY 10019,New York City,10019,40.7641849,-73.9784051,1444,4.7,16761402,0
b15,Doughnut Plant,379 Grand Street$*$ New York$*$ NY 10002,New York City,10002,40.71645,-73.98851111,805,4.7,16764602,0
b16,Eleven Madison Park,11 Madison Avenue$*$ New York$*$ NY 10010,New York City,10010,40.7415086,-73.9866285,722,4.7,16765367,0
b17,Caf Habana,17 Prince Street$*$ New York$*$ NY 10012,New York City,10012,40.722933,-73.994193,797,4.7,16761927,0
b18,Caf Mogador,101 Saint Marks Place$*$ New York$*$ NY 10009,New York City,10009,40.72724167,-73.98456667,701,4.7,16761939,0
b19,Roberta's,261 Moore Street$*$ Brooklyn$*$ NY 11206,New York City,11206,40.704893,-73.934352,511,4.7,16781877,0
b20,L & B Spumoni Gardens,2725 86th Street$*$ Brooklyn$*$ NY 11223,New York City,11223,40.594492,-73.981231,824,4.7,16770070,0
b21,Taverna Kyclades,33-07 Ditmars Boulevard$*$ Astoria$*$ NY 11105,New York City,11105,40.77516944,-73.90925556,656,4.7,16779383,0
b22,Il Bambino,34-08 31st Avenue$*$ Queens$*$ NY 11106,New York City,11106,40.76299167,-73.92070833,554,4.7,16781519,0
b23,Peaches,393 Lewis Avenue$*$ Brooklyn$*$ NY 11233,New York City,11233,40.68175,-73.93483056,485,4.7,16782045,0
b24,Junior's,1515 Broadway$*$ New York$*$ NY 10036,New York City,10036,40.75824722,-73.98644167,761,4.6,16769241,0
b25,The Spotted Pig,314 W 11th Street$*$ New York$*$ NY 10014,New York City,10014,40.73569167,-74.00672222,2158,4.6,16777961,0
b26,The Halal Guys,6th Avenue & W 53rd Street$*$ New York$*$ NY 10019,New York City,10019,40.7617884,-73.9790839,564,4.6,16783998,0
b27,Max Brenner,841 Broadway$*$ New York$*$ NY 10003,New York City,10003,40.73441389,-73.99143333,1062,4.6,16771928,0
b28,Peter Luger Steak House,178 Broadway$*$ Brooklyn$*$ NY 11211,New York City,11211,40.70987778,-73.96234167,2115,4.6,16775039,0
b29,Carmine's,200 W 44th Street$*$ New York$*$ NY 10036,New York City,10036,40.757498,-73.986654,2004,4.6,16762160,0
b30,Le Bernardin,155 W 51st Street$*$ New York$*$ NY 10019,New York City,10019,40.76080278,-73.98191944,1064,4.6,16770626,0
b31,Amy Ruth's,113 W 116th Street$*$ New York$*$ NY 10026,New York City,10026,40.80217778,-73.95048611,665,4.6,16759343,0
b32,Caracas Arepa Bar,93 East 7th Street$*$ New York$*$ NY 10009,New York City,10009,40.726875,-73.98541389,845,4.6,16762096,0
b33,Egg,109 N 3rd Street$*$ Brooklyn$*$ NY 11249,New York City,11249,40.71667222,-73.96177778,600,4.6,16765065,0
b34,Russ & Daughters,179 E Houston Street$*$ New York$*$ NY 10002,New York City,10002,40.72273611,-73.98823611,268,4.6,16776730,0
b35,Denino's Pizzeria & Tavern,524 Port Richmond Avenue$*$ NY 10302,New York City,10302,40.63001667,-74.14006667,755,4.6,16764249,0
b36,Pisticci,125 La Salle Street$*$ New York$*$ NY 10027,New York City,10027,40.814026,-73.959946,343,4.6,16781491,0
b37,Nick's Pizza,10826 Ascan Avenue$*$ NY 11375,New York City,11375,40.717754,-73.840758,425,4.6,16773736,0
b38,Choice Market,318 Lafayette Avenue$*$ Brooklyn$*$ NY 11238,New York City,11238,40.68845833,-73.96286111,306,4.6,16763001,0
b39,Roll-n-Roaster,2901 Emmons Avenue$*$ Brooklyn$*$ NY 11235,New York City,11235,40.584025,-73.93943889,311,4.6,16776516,0
b40,Bakhter Halal Kabab,6816 Fresh Meadow Lane$*$ Fresh Meadows$*$ NY 11365,New York City,11365,40.733269,-73.794733,346,4.6,16760082,0
b41,Panino Rustico,8222 17th Avenue$*$ Brooklyn$*$ NY 11214,New York City,11214,40.610489,-74.003133,167,4.6,16786917,0
b42,Grimaldi's Pizzeria,1 Front Street$*$ Brooklyn$*$ NY 11201,New York City,11201,40.70251389,-73.99327222,1619,4.5,16767332,0
b43,Balthazar,80 Spring Street$*$ New York$*$ NY 10012,New York City,10012,40.72280833,-73.99822222,4051,4.5,16760100,0
b44,John's Pizza of Times Square,260 W 44th Street$*$ New York$*$ NY 10036,New York City,10036,40.75841111,-73.98826667,1410,4.5,16769089,0
b45,ABC Kitchen,35 E 18th Street$*$ New York$*$ NY 10003,New York City,10003,40.73764444,-73.98972222,448,4.5,16784987,0
b46,Dinosaur Bar-B-Que,700 W 125th Street$*$ New York$*$ NY 10027,New York City,10027,40.81829722,-73.96070833,1273,4.5,16764344,0
b47,Dominique Ansel Bakery,189 Spring Street$*$ New York$*$ NY 10012,New York City,10012,40.72508611,-74.00311389,356,4.5,16787297,0
b48,Becco,355 W 46th Street$*$ Theater District$*$ NY 10036,New York City,10036,40.76066,-73.98943,1246,4.5,16760367,0
b49,Sea Restaurant,114 N 6th Street$*$ Brooklyn$*$ NY 11249,New York City,11249,40.71820556,-73.95983889,1918,4.5,16777242,0
b50,Rice To Riches,37 Spring Street$*$ New York$*$ NY 10012,New York City,10012,40.72185556,-73.99580278,565,4.5,16776318,0
b51,The Meatball Shop,84 Stanton Street$*$ New York$*$ NY 10002,New York City,10002,40.72161389,-73.98880833,588,4.5,16784825,0
b52,Nathan's Famous,Luna Park$*$ 1310 Surf Avenue$*$ Brooklyn$*$ NY 11224,New York City,11224,40.57545,-73.98168056,391,4.5,16773187,0
b53,Fette Sau,354 Metropolitan Avenue$*$ Brooklyn$*$ NY 11211,New York City,11211,40.714168,-73.956657,481,4.5,16781746,0
b54,Crif Dogs,113 St Marks Place$*$ New York$*$ NY 10009,New York City,10009,40.72696389,-73.98398611,439,4.5,16763658,0
b55,Mamoun's Falafel,119 MacDougal Street$*$ New York$*$ NY 10012,New York City,10012,40.73034167,-74.00054167,552,4.5,16771589,0
b56,Sripraphai,6413 39th Avenue$*$ Queens$*$ NY 11377,New York City,11377,40.746375,-73.89927778,612,4.5,16777982,0
b57,Adrienne's Pizza Bar,54 Stone Street$*$ New York$*$ NY 10004,New York City,10004,40.704525,-74.01036111,534,4.5,16758999,0
b58,Al Di L Trattoria,248 5th Avenue$*$ Brooklyn$*$ NY 11215,New York City,11215,40.67522778,-73.9812,747,4.5,16759084,0
b59,Joya,215 Court Street$*$ Brooklyn$*$ NY 11201,New York City,11201,40.68670278,-73.99390278,522,4.5,16769165,0
b60,Absolute Bagels,2788 Broadway$*$ New York$*$ NY 10025,New York City,10025,40.80259722,-73.96755278,282,4.5,16758954,0
b61,Bareburger,3321 31st Avenue$*$ Astoria$*$ NY 11106,New York City,11106,40.76326667,-73.92121111,413,4.5,16783638,0
b62,Song,295 5th Avenue$*$ Brooklyn$*$ NY 11215,New York City,11215,40.67356389,-73.98262778,813,4.5,16777824,0
b63,Sanford's Restaurant,30-13 Broadway$*$ Queens$*$ NY 11106,New York City,11106,40.76219444,-73.92575833,420,4.5,16777081,0
b64,Joy Burger Bar,1567 Lexington Avenue$*$ New York$*$ NY 10029,New York City,10029,40.788475,-73.94911111,523,4.6,16781896,0
b65,Chavela's,736 Franklin Avenue$*$ Brooklyn$*$ NY 11238,New York City,11238,40.67339722,-73.95707778,380,4.5,16781992,0
b66,Pio Pio 2,8402 Northern Boulevard$*$ NY 11372,New York City,11372,40.75558056,-73.88320833,387,4.5,16775216,0
b67,Fisheye Bar & Grill,5913 Foster Avenue$*$ Brooklyn$*$ NY 11234,New York City,11234,40.639863,-73.920339,432,4.5,16782745,0
b68,Malecn Restaurant,4141 Broadway$*$ NY 10033,New York City,10033,40.84634722,-73.9385,373,4.5,16765194,0
b69,Vesta Trattoria & Winebar,21-02 30th Avenue$*$ Queens$*$ NY 11102,New York City,11102,40.76993889,-73.92765,318,4.5,16782605,0
b70,Bel Aire,31-91 21st Street$*$ Astoria$*$ NY 11106,New York City,11106,40.76526944,-73.93145,479,4.5,16760397,0
b71,Forlini's Restaurant,93 Baxter Street$*$ New York$*$ NY 10013,New York City,10013,40.71696944,-73.99968056,307,4.5,16766160,0
b72,Veranda Restaurant & Caf,20801 Northern Blvd$*$ Bayside$*$ NY 11361,New York City,11361,40.758952,-73.77539,248,4.5,16784767,0
b73,Press 195,40-11 Bell Boulevard$*$ Queens$*$ NY 11361,New York City,11361,40.76388889,-73.77105833,276,4.5,16775667,0
b74,Taco King,64-05 108th Street$*$ Queens$*$ NY 11375,New York City,11375,40.73284167,-73.849425,327,4.5,16779118,0
b75,Liberato Restaurant,1 West 183rd Street$*$ Bronx$*$ NY 10453,New York City,10453,40.858575,-73.90406667,369,4.5,16782844,0
b76,Gramercy Tavern,42 E 20th Street$*$ NY 10003,New York City,10003,40.73871667,-73.98838889,1779,4.4,16767139,0
b77,Per Se,Time Warner Center$*$ 10 Columbus Circle$*$ 4th Floor$*$ New York$*$ NY 10019,New York City,10019,40.7684141,-73.9827037,712,4.4,16774980,0
b78,Veselka,144 2nd Avenue$*$ New York$*$ NY 10003,New York City,10003,40.72921667,-73.98722778,1268,4.4,16780467,0
b79,Joe's Shanghai,9 Pell Street$*$ New York$*$ NY 10013,New York City,10013,40.71474722,-73.99767222,961,4.4,16769041,0
b80,Les Halles Park Avenue,411 Park Avenue South$*$ New York$*$ NY 10016,New York City,10016,40.74361111,-73.98425278,778,4.4,16770808,0
b81,Momofuku Ssm Bar,207 2nd Avenue$*$ New York$*$ NY 10003,New York City,10003,40.73166667,-73.98565556,837,4.4,16772774,0
b82,Blue Smoke,116 E 27th Street$*$ New York$*$ NY 10016,New York City,10016,40.742241,-73.983808,981,4.4,16760901,0
b83,Gray's Papaya,2090 Broadway$*$ New York$*$ NY 10023,New York City,10023,40.77858056,-73.98162778,890,4.4,16767193,0
b84,Momofuku Milk Bar,251 East 13th Street$*$ New York$*$ NY 10003,New York City,10003,40.73188056,-73.98588611,609,4.4,16782628,0
b85,Del Frisco's Double Eagle Steakhouse,1221 6th Avenue$*$ NY 10020,New York City,10020,40.73486667,-73.95844167,652,4.4,16764129,0
b86,Ferrara Bakery & Cafe,195 Grand Street$*$ New York$*$ NY 10013,New York City,10013,40.71928333,-73.99704722,441,4.4,16765896,0
b87,Corner Bistro,331 W 4th Street$*$ New York$*$ NY 10014,New York City,10014,40.73800556,-74.0038,788,4.4,16763499,0
b88,John's of Bleecker Street,278 Bleecker Street$*$ New York$*$ NY 10014,New York City,10014,40.73175,-74.00325833,622,4.4,16769090,0
b89,Locanda Verde,377 Greenwich Street$*$ New York$*$ NY 10013,New York City,10013,40.719768,-74.010058,582,4.4,16783477,0
b90,Ess-a-Bagel,831 3rd Avenue$*$ New York$*$ NY 10022,New York City,10022,40.75640556,-73.97061111,551,4.4,16765566,0
b91,Victor's Caf,236 W 52nd Street$*$ New York$*$ NY 10019,New York City,10019,40.7644,-73.98309444,591,4.4,16780502,0
b92,Penelope,159 Lexington Avenue$*$ New York$*$ NY 10016,New York City,10016,40.74379722,-73.98164444,594,4.4,16774946,0
b93,The Little Owl,90 Bedford Street$*$ New York$*$ NY 10014,New York City,10014,40.73247778,-74.00530278,513,4.4,16771013,0
b94,Billy's Bakery,184 9th Avenue$*$ New York$*$ NY 10011,New York City,10011,40.74548611,-74.00206667,389,4.3,16760663,0
b95,Artichoke Basille's Pizza,328 East 14th Street$*$ New York$*$ NY 10003,New York City,10003,40.73171667,-73.98383333,442,4.4,16781900,0
b96,Chinatown Ice Cream Factory,65 Bayard Street$*$ New York$*$ NY 10013,New York City,10013,40.71558056,-73.99806111,346,4.4,16762904,0
b97,Luke's Lobster,93 E 7th Street$*$ New York$*$ NY 10009,New York City,10009,40.72683333,-73.98535278,372,4.4,16784183,0
b98,McSorley's Old Ale House,15 E 7th Street$*$ New York$*$ NY 10003,New York City,10003,40.728625,-73.98993611,325,4.4,16772221,0
b99,ilili Restaurant,236 5th Avenue$*$ New York$*$ NY 10001,New York City,10001,40.74415556,-73.98756389,303,4.4,16781744,0
b100,Bogot Latin Bistro,141 5th Avenue$*$ Brooklyn$*$ NY 11217,New York City,11217,40.67821389,-73.97923333,527,4.4,16760951,0
b101,Miku Restaurant,200 Granville Street$*$ Vancouver$*$ BC V6C 1S4,Vancouver,V6C 1S4,49.2863654,-123.1123594,2037,4.9,16619359,0
b102,Kishimoto Japanese Kitchen & Sushi Bar,2054 Commercial Drive$*$ Vancouver$*$ BC V5N 4A9,Vancouver,V5N 4A9,49.266702,-123.069492,1493,4.9,16625649,0
b103,Thomas Haas,2539 West Broadway$*$ Vancouver$*$ BC V6K 2E9,Vancouver,V6K 2E9,49.264127,-123.163176,1350,4.9,16621168,0
b104,Chez Meme Baguette Bistro,4016 Hastings Street$*$ Burnaby$*$ BC V5C 2J1,Burnaby,V5C 2J1,49.2809387,-123.0156758,996,4.9,16622734,0
b105,Kingyo Izakaya,871 Denman Street$*$ Vancouver$*$ BC V6G 2LN,Vancouver,V6G 2LN,49.290502,-123.136997,1687,4.8,16617755,0
b106,Meat & Bread,370 Cambie Street$*$ Vancouver$*$ BC V6B 1H7,Vancouver,V6B 1H7,49.282812,-123.109203,2868,4.8,16624909,0
b107,La Taqueria,322 W Hastings Street$*$ Vancouver$*$ BC V6B 1K6,Vancouver,V6B 1K6,49.28286,-123.110368,1750,4.8,16621045,0
b108,Phnom Penh,244 E Georgia Street$*$ Vancouver$*$ BC V6A 1Z7,Vancouver,V6A 1Z7,49.278382,-123.098462,4018,4.7,16618137,0
b109,Fable Kitchen,1944 W 4th Avenue$*$ Vancouver$*$ BC V6J 1M5,Vancouver,V6J 1M5,49.2680053,-123.1490366,1343,4.7,16626364,0
b110,Nero Belgian Waffle Bar,1703 Robson Street$*$ Vancouver$*$ BC V6G1C8,Vancouver,V6G1C8,49.2905741,-123.1340073,1650,4.7,16626360,0
b111,Suika,1626 W Broadway$*$ Vancouver$*$ BC V6J 1X6,Vancouver,V6J 1X6,49.263515,-123.141804,2145,4.7,16624739,0
b112,Hitoe Sushi,3347 W 4th Avenue$*$ Vancouver$*$ BC V6K 1R8,Vancouver,V6K 1R8,49.268634,-123.178548,1053,4.7,16620690,0
b113,Glenburn Soda Fountain & Confectionery,4090 Hastings Street$*$ Burnaby$*$ BC V5C 2H9,Burnaby,V5C 2H9,49.28106868,-123.0146124,426,4.7,16626792,0
b114,Minami Restaurant,1118 Mainland Street$*$ Vancouver$*$ BC V6B 2T9,Vancouver,V6B 2T9,49.2752799,-123.1209494,1228,4.6,16626187,0
b115,Toshi Sushi,Cartier Place$*$ 181 E 16th Avenue$*$ Vancouver$*$ BC V5T 3B4,Vancouver,V5T 3B4,49.256755,-123.101646,1407,4.6,16618589,0
b116,Chambar,568 Beatty Street$*$ Vancouver$*$ BC V6B 2L3,Vancouver,V6B 2L3,49.2801585,-123.1099209,2382,4.6,16617115,0
b117,Guu Original,838 Thurlow Street$*$ Vancouver$*$ BC V6E 1W2,Vancouver,V6E 1W2,49.284016,-123.125365,1591,4.6,16617531,0
b118,Earnest Ice Cream,3992 Fraser Street$*$ Vancouver$*$ BC V5V4E4,Vancouver,V5V4E4,49.2493545,-123.0899152,1072,4.6,16626442,0
b119,Hokkaido Ramen Santouka,1690 Robson Street$*$ Vancouver$*$ BC V6G 1C7,Vancouver,V6G 1C7,49.290219,-123.133782,2585,4.6,16623075,0
b120,L.A. Chicken,160-11780 Thorpe Road$*$ Richmond$*$ BC V6X 1J5,Richmond,V6X 1J5,49.183143,-123.093157,650,4.6,16619590,0
b121,Cafe Salade de Fruits,Inside French Cultural Centre$*$ 1551 W 7th Avenue$*$ Vancouver$*$ BC V6H 4H7,Vancouver,V6H 4H7,49.265616,-123.139712,892,4.6,16618305,0
b122,Alibi Room,157 Alexander Street$*$ Vancouver$*$ BC V6A 1B8,Vancouver,V6A 1B8,49.284226,-123.100694,949,4.6,16616824,0
b123,Tandoori Kona Restaurant,170-11700 Cambie Road$*$ Richmond$*$ BC V6V 1G5,Richmond,V6V 1G5,49.18443,-123.094252,976,4.6,16618523,0
b124,Cockney Kings Fish & Chips,Columbia Square Plaza$*$ 130-66 10th Street$*$ Metro Vancouver$*$ BC V3M 1A6,Metro Vancouver,V3M 1A6,49.200856,-122.915918,782,4.6,16617178,0
b125,Bella Gelateria,1001 West Cordova Street$*$ Vancouver$*$ BC V6C 3L5,Vancouver,V6C 3L5,49.287753,-123.116274,1893,4.5,16624225,0
b126,The Oakwood Canadian Bistro,2741 W 4th Avenue$*$ Vancouver$*$ BC V6K1P9,Vancouver,V6K1P9,49.268466,-123.167129,1453,4.5,16625660,0
b127,Cafe Medina,780 Richards Street$*$ Vancouver$*$ BC V6B 3A6,Vancouver,V6B 3A6,49.280155,-123.117785,2871,4.5,16618773,0
b128,Au Petit Cafe,4851 Main Street$*$ Vancouver$*$ BC V5V3R9,Vancouver,V5V3R9,49.2411895,-123.1014417,934,4.5,16616883,0
b129,Ajisai Sushi Bar,2081 West 42nd Avenue$*$ Vancouver$*$ BC V6M2B4,Vancouver,V6M2B4,49.233697,-123.1542,1189,4.5,16616812,0
b130,BETA5 Chocolates,413 Industrial Avenue$*$ Vancouver$*$ BC V6A2P3,Vancouver,V6A2P3,49.2694702,-123.0955155,524,4.5,16626300,0
b131,La Taqueria,2549 Cambie Street$*$ Vancouver$*$ BC,Vancouver,0,49.26274,-123.11512,889,4.5,16625712,0
b132,Rodney's Oyster House,1228 Hamilton Street$*$ Vancouver V6B 6L2,Vancouver,V6B 6L2,49.27460145,-123.1234638,2099,4.5,16618270,0
b133,Dragon Ball Tea House,1007 W King Edward Avenue$*$ Vancouver$*$ BC V6H1Z3,Vancouver,V6H1Z3,49.249437,-123.127706,685,4.5,16617299,0
b134,Jimoco Cafe & Pasta,1046 Austin Avenue$*$ Coquitlam$*$ BC V3K 3P3,Coquitlam,V3K 3P3,49.248784,-122.864367,820,4.5,16622067,0
b135,CHAU VeggiExpress,5052 Victoria Drive$*$ Vancouver$*$ BC V5P3T8,Vancouver,V5P3T8,49.2385391,-123.0652064,543,4.5,16625562,0
b136,Shizen Ya,985 Hornby Street$*$ Vancouver$*$ BC V6Z2E1,Vancouver,V6Z2E1,49.280844,-123.12475,676,4.5,16623464,0
b137,Steveston Pizza Co.,3400 Moncton Street$*$ Richmond$*$ BC V7E 3A3,Richmond,V7E 3A3,49.125127,-123.185605,652,4.5,16618455,0
b138,Pho Tam,Andes Plaza$*$ 10-10302 City Parkway$*$ Surrey$*$ Surrey$*$ BC V3T 4Y8,Surrey,V3T 4Y8,49.1894924,-122.8476785,530,4.5,16621049,0
b139,Mom's Grilled Cheese Truck,884 West Cordova Street$*$ Vancouver$*$ BC V6C3G1,Vancouver,V6C3G1,49.287274,-123.115064,464,4.5,16625491,0
b140,La Grotta Del Formaggio,1791 Commercial Drive$*$ Vancouver$*$ BC V5N4A4,Vancouver,V5N4A4,49.26886,-123.069876,577,4.5,16617801,0
b141,Yolk's Breakfast Trailer,Location Varies$*$ Vancouver$*$ BC V6B,Vancouver,V6B,0,0,401,4.5,16626594,0
b142,Maguro Sushi,Trenant Park Square$*$ 5241 Ladner Trunk Road$*$ Metro Vancouver$*$ BC V4K1W4,Metro Vancouver,V4K1W4,49.090321,-123.077413,666,4.5,16619038,0
b143,Dunbar Pizza & Grill,3348 Dunbar Street$*$ Vancouver$*$ BC V6S1C5,Vancouver,V6S1C5,49.256901,-123.185027,497,4.5,16617308,0
b144,Blue Water Cafe,1095 Hamilton Street$*$ Vancouver$*$ BC V6B 5T4,Vancouver,V6B 5T4,49.2761102,-123.121171,1606,4.4,16616969,0
b145,Hi Genki,6680 Southoaks Crescent$*$ Burnaby$*$ BC V5E 4N3,Burnaby,V5E 4N3,49.217718,-122.9649,777,4.4,16617578,0
b146,Gyu-Kaku Japanese BBQ,888 Nelson Street$*$ Vancouver$*$ BC V6Z2R9,Vancouver,V6Z2R9,49.2804933,-123.1249441,856,4.4,16625247,0
b147,Burgoo,3096 Main Street$*$ Vancouver$*$ BC V5T 3G5,Vancouver,V5T 3G5,49.257653,-123.100983,1558,4.4,16618814,0
b148,Twisted Fork Bistro,1147 Granville Street$*$ Vancouver$*$ BC V6B 2G6,Vancouver,V6B 2G6,49.277818,-123.125507,1769,4.4,16619055,0
b149,Nuba,207 West Hastings Street$*$ Vancouver$*$ BC V6B 2N4,Vancouver,V6B 2N4,49.282594,-123.109588,1549,4.4,16618033,0
b150,Acme Cafe,51 W Hastings Street$*$ Vancouver$*$ BC V6B1G4,Vancouver,V6B1G4,49.281858,-123.105645,1173,4.4,16622847,0
b151,Flying Beaver Bar & Grill,4760 Inglis Drive$*$ Richmond$*$ BC V7B1L7,Richmond,V7B1L7,49.177418,-123.167923,823,4.4,16617404,0
b152,Tuc Craft Kitchen,60 West Cordova Street$*$ Vancouver$*$ BC V6B1C9,Vancouver,V6B1C9,49.2827777,-123.1064722,715,4.4,16627083,0
b153,Guu With Garlic,1698 Robson Street$*$ Vancouver$*$ BC V6G 1C7,Vancouver,V6G 1C7,49.290248,-123.133784,1245,4.4,16617532,0
b154,Cafe de l'Orangerie,1320 W 73rd Avenue$*$ Vancouver$*$ BC V6P 4R3,Vancouver,V6P 4R3,49.2042129,-123.135365,692,4.4,16624600,0
b155,Sawasdee Thai Restaurant,4250 Main Street$*$ Vancouver$*$ BC V5V 3R1,Vancouver,V5V 3R1,49.246976,-123.100927,764,4.4,16618337,0
b156,The Templeton,1087 Granville Street$*$ Vancouver$*$ BC V6Z 1L2,Vancouver,V6Z 1L2,49.278554,-123.124428,635,4.4,16618539,0
b157,Bao Chau,2717 East Hastings Street$*$ Vancouver$*$ BC V5K 1Z8,Vancouver,V5K 1Z8,49.281336,-123.048643,668,4.4,16616908,0
b158,Yamato Sushi,616 Davie Street$*$ Vancouver$*$ BC V6B 3N3,Vancouver,V6B 3N3,49.276589,-123.125547,893,4.4,16618717,0
b159,Bistro 101,Pacific Institute of Culinary Arts$*$ 1505 West 2nd Avenue$*$ Vancouver$*$ BC V6J 1H2,Vancouver,V6J 1H2,49.269492,-123.138201,320,4.4,16618094,0
b160,Smokehouse Sandwich Company,108-5188 Westminster Highway$*$ Richmond$*$ BC V7C5S7,Richmond,V7C5S7,49.1699875,-123.1672294,368,4.4,16627652,0
b161,Fraser Park Restaurant,4663 Byrne Road$*$ Burnaby$*$ BC V5J 3H6,Burnaby,V5J 3H6,49.193672,-122.997269,451,4.4,16621285,0
b162,Trilussa Pizza & Pane,4363 Main Street$*$ Vancouver$*$ BC V5V3R1,Vancouver,V5V3R1,49.246482,-123.101367,438,4.4,16625615,0
b163,Mosaic Grille & Bar - Hyatt Regency,Hyatt Regency$*$ 655 Burrard Street$*$ Vancouver$*$ BC V6C0A4,Vancouver,V6C0A4,49.284989,-123.120416,298,4.4,16617964,0
b164,Tokyo Thyme,5405 W Boulevard$*$ Vancouver$*$ BC V6M,Vancouver,V6M,49.237292,-123.155621,422,4.4,16624324,0
b165,Viet Sub Vietnamese Cuisine,520 Robson Street$*$ Vancouver$*$ BC V6B2B7,Vancouver,V6B2B7,49.28018,-123.118253,622,4.4,16620925,0
b166,Lee's Donuts,The Public Market$*$ 122-1689 Johnston Street$*$ Vancouver$*$ BC V6H3R9,Vancouver,V6H3R9,49.272611,-123.135633,369,4.4,16619365,0
b167,Ba Le Deli & Bakery,701 Kingsway$*$ Vancouver$*$ BC V5T 2R7,Vancouver,V5T 2R7,49.256723,-123.089087,397,4.4,16619509,0
b168,Cake-ya,2415 Clarke Street$*$ Metro Vancouver$*$ BC V3H1Y9,Metro Vancouver,V3H1Y9,49.2777955,-122.8580293,281,4.4,16622899,0
b169,The Sweet Spot Bakery,110-12000 First Avenue$*$ Richmond$*$ BC V7E3L9,Richmond,V7E3L9,49.126288,-123.182583,347,4.4,16625063,0
b170,Harvest Deli,2963 W Broadway$*$ Vancouver$*$ BC V6K2G9,Vancouver,V6K2G9,49.26421,-123.1713,353,4.4,16625559,0
b171,Plaisir Sucre,2668 Arbutus Street$*$ Vancouver$*$ BC V6J5L8,Vancouver,V6J5L8,49.2623,-123.152792,282,4.4,16622765,0
b172,Supreme Pizza,6539 Victoria Drive$*$ Vancouver$*$ BC V5P3X9,Vancouver,V5P3X9,49.224855,-123.065943,336,4.4,16621699,0
b173,Aaron's Restaurant,17665-57$*$ Avenue$*$ Surrey$*$ BC V3S 1H1,Surrey,V3S 1H1,49.1059795,-122.7332857,302,4.4,16619306,0
b174,Long's Noodle House,4853 Main Street$*$ Vancouver$*$ BC V5V,Vancouver,V5V,49.241284,-123.10158,753,4.3,16617863,0
b175,L'Abattoir,217 Carrall Street$*$ Vancouver$*$ BC V6B2J2,Vancouver,V6B2J2,49.2831063,-123.1042758,1171,4.3,16624449,0
b176,Joe Fortes Seafood & Chop House,777 Thurlow Street$*$ Vancouver$*$ BC V6E 3V5,Vancouver,V6E 3V5,49.2850465,-123.1244619,1698,4.3,16617679,0
b177,Sushi Nanaimo,350 Nanaimo Street$*$ Vancouver$*$ BC V5L,Vancouver,V5L,49.281633,-123.056424,1087,4.3,16625895,0
b178,Les Faux Bourgeois,663 E 15th Avenue$*$ Vancouver$*$ BC V5T 2R6,Vancouver,V5T 2R6,49.2572712,-123.0896247,2156,4.3,16618903,0
b179,Forty Ninth Parallel Cafe & Lucky's Doughnuts,2902 Main Street$*$ Vancouver$*$ BC V5T3G3,Vancouver,V5T3G3,49.2591539,-123.1007927,913,4.3,16626404,0
b180,The Red Wagon,2296 E Hastings Street$*$ Vancouver$*$ BC V5L 1V4,Vancouver,V5L 1V4,49.2810313,-123.0579505,1837,4.3,16624919,0
b181,Sal Y Limon,5 701 Kingsway$*$ Vancouver$*$ BC V5T 2R7,Vancouver,V5T 2R7,49.25679,-123.0892259,749,4.3,16626320,0
b182,West Restaurant + Bar,2881 Granville Street$*$ Vancouver$*$ BC 0V6H 3J4,Vancouver,0V6H 3J4,49.2600494,-123.1389135,644,4.3,16618667,0
b183,Chez Christophe Chocolaterie Patisserie,4717 E Hastings Street$*$ Burnaby$*$ BC V5C 2K8,Burnaby,V5C 2K8,49.28098,-122.9969417,357,4.3,16626949,0
b184,Sushimoto,102-2201 Holdom Avenue$*$ Burnaby$*$ BC V5B 0A2,Burnaby,V5B 0A2,49.2643489,-122.9813513,824,4.3,16624636,0
b185,Sushiyama,371 E Broadway$*$ Vancouver$*$ BC V5T 3M7,Vancouver,V5T 3M7,49.262936,-123.097197,1337,4.3,16618488,0
b186,East Is East,3243 West Broadway$*$ Vancouver$*$ BC V6K2H5,Vancouver,V6K2H5,49.264328,-123.176627,1052,4.3,16617325,0
b187,Le Crocodile,909 Burrard Street$*$ Vancouver$*$ BC V6E 4T4,Vancouver,V6E 4T4,49.282239,-123.124581,1080,4.3,16617828,0
b188,Nicli Antica Pizzeria,62 E Cordova Street$*$ Vancouver$*$ BC V6A 1K3,Vancouver,V6A 1K3,49.2823587,-123.1028565,1022,4.3,16624669,0
b189,Finch's Tea & Coffee House,353 West Pender Street$*$ Vancouver$*$ BC V6B 1T1,Vancouver,V6B 1T1,49.282524,-123.11125,667,4.3,16617386,0
b190,Go Fish Ocean Emporium,1505 W 1st Avenue$*$ Vancouver$*$ BC V6J1E8,Vancouver,V6J1E8,49.271498,-123.139916,950,4.3,16617472,0
b191,HK BBQ Master,4651$*$Number 3 Road$*$ Richmond$*$ BC V6Y 1N3,Richmond,V6Y 1N3,49.17970156,-123.1379293,540,4.3,16619504,0
b192,Shiro,3096 Cambie Street$*$ Vancouver$*$ BC V5Z 2V9,Vancouver,V5Z 2V9,49.257981,-123.114911,699,4.3,16618383,0
b193,Sushi Hachi,Pacific Plaza$*$ 1287-8888 Odlin Crescent$*$ Richmond$*$ BC V6X 3Z8,Richmond,V6X 3Z8,49.183813,-123.126804,516,4.3,16618476,0
b194,La Belle Patate,1215 Davie Street$*$ Vancouver$*$ BC V6E 1N4,Vancouver,V6E 1N4,49.282121,-123.133588,725,4.3,16621918,0
b195,Tamarind Hill,103-628 6th Avenue$*$ Metro Vancouver$*$ BC V3L 1K1,Metro Vancouver,V3L 1K1,49.2126127,-122.9213524,733,4.3,16618521,0
b196,Dutch Wooden Shoe Cafe,3292 Cambie Street$*$ Vancouver$*$ BC V5Z,Vancouver,V5Z,49.256133,-123.114907,538,4.3,16617311,0
b197,Thomas Haas,998 Harbourside Drive$*$ North Vancouver$*$ BC V7P3T2,North Vancouver,V7P3T2,49.314746,-123.099752,540,4.3,16618560,0
b198,Via Tevere,1190 Victoria Drive$*$ Vancouver$*$ BC V5L 4G5,Vancouver,V5L 4G5,49.273879,-123.065645,691,4.3,16625835,0
b199,La Brasserie,1091 Davie Street$*$ Vancouver$*$ BC V6E4L2,Vancouver,V6E4L2,49.28021,-123.130712,740,4.3,16619056,0
b200,Sushi K Kamizato,Shaughnessy Station$*$ 2850 Shaughnessy Street$*$ Metro Vancouver$*$ BC V3C 0A4,Metro Vancouver,V3C 0A4,49.2666564,-122.7763367,478,4.3,16626518,0
b201,Bill's Donut Shop,268 N Main St$*$ Centerville$*$ OH 45459,Dayton,45459,39.635493,-84.158147,666,4.9,17335524,0
b202,Joe's Pizzeria and Pub,4313 Airway Rd$*$ Dayton$*$ OH 45431,Dayton,45431,39.7655,-84.137,425,4.8,17335911,0
b203,House of Thai,3230 Seajay Dr$*$ Beavercreek$*$ OH 45430,Dayton,45430,39.720311,-84.061651,790,4.7,17337753,0
b204,Tank's Bar & Grill,2033 Wayne Ave$*$ Dayton$*$ OH 45410,Dayton,45410,39.7417,-84.1659,923,4.6,17336393,0
b205,Taqueria Mixteca,1609 E 3rd St$*$ Dayton$*$ OH 45403,Dayton,45403,39.7632,-84.1702,569,4.6,17336394,0
b206,Old Glory Cafe and Sweet Shoppe,7111 Taylorsville Road$*$ Huber Heights$*$ OH 45424,Dayton,45424,39.861027,-84.107646,485,4.6,17337857,0
b207,Golden Nugget Pancake House,2932 S Dixie Dr$*$ Kettering$*$ OH 45409,Dayton,45409,39.709481,-84.200396,572,4.5,17335846,0
b208,Kabuki Korean Restaurant & Sushi Bar,848 S Main St$*$ Centerville$*$ OH 45458,Dayton,45458,39.615703,-84.159806,418,4.5,17337881,0
b209,Siam Pad Thai,3027 Wilmington Pike$*$ Kettering$*$ OH 45429,Dayton,45429,39.703102,-84.142031,856,4.5,17337824,0
b210,Dewey's Pizza,131 Jasper St$*$ Dayton$*$ OH 45409,Dayton,45409,39.7419,-84.1837,451,4.5,17335730,0
b211,Thai 9,11 Brown St$*$ Dayton$*$ OH 45402,Dayton,45402,39.7571,-84.1859,919,4.4,17336404,0
b212,El Meson Restaurante,903 E Dixie Dr$*$ Dayton$*$ OH 45449,Dayton,45449,39.6772,-84.2389,518,4.4,17335767,0
b213,Linh's Bistro,5532 Airway Rd$*$ Dayton$*$ OH 45431,Dayton,45431,39.7718353,-84.1142369,406,4.4,17338224,0
b214,Chappy's Tap Room & Grille,2377 Alex Bell$*$ Moraine$*$ OH 45459,Dayton,45459,39.67219,-84.212699,328,4.4,17337776,0
b215,Jim's Donut Shop,122 E National Rd$*$ Vandalia$*$ OH 45377,Dayton,45377,39.8909,-84.197,225,4.4,17337548,0
b216,Cheng's Gourmet Chinese Restaurant,543 W 2nd St$*$ Xenia$*$ OH 45385,Dayton,45385,39.6828,-83.9385,219,4.4,17337690,0
b217,CJ Chan,536 Wilmington Ave$*$ Dayton$*$ OH 45420,Dayton,45420,39.733032,-84.15923,238,4.3,17337982,0
b218,Sima Japanese & Korean Restaurant,1771 Woodman Dr$*$ Kettering$*$ OH 45420,Dayton,45420,39.7240195,-84.1229726,334,4.3,17336820,0
b219,Meadowlark Restaurant,5531 Far Hills Ave$*$ Dayton$*$ OH 45429,Dayton,45429,39.665842,-84.161544,524,4.3,17336054,0
b220,Christopher's Restaurant & Catering,2318 E Dorothy Ln$*$ Kettering$*$ OH 45420,Dayton,45420,39.7024,-84.1228,353,4.3,17336811,0
b221,Pasha Grill,72 Plum Street$*$ Beavercreek$*$ OH 45440,Dayton,45440,39.693882,-84.10141,319,4.3,17337848,0
b222,Doubleday's Grill & Tavern,199 E Alex Bell Rd$*$ Dayton$*$ OH 45459,Dayton,45459,39.6439,-84.1502,298,4.3,17335752,0
b223,The Heights Cafe,6178 Chambersburg Rd$*$ Huber Heights$*$ OH 45424,Dayton,45424,39.847115,-84.1176818,261,4.3,17337922,0
b224,Campioni's,92 Edgebrooke Dr$*$ Springboro$*$ OH 45066,Dayton,45066,39.5591,-84.2349,330,4.3,17337083,0
b225,Fusian,1200 Brown Street$*$ Dayton$*$ OH 45409,Dayton,45409,39.7416238,-84.1822229,244,4.3,17338083,0
b226,Spinoza's Pizza & Salads,2727 Fairfield Commons Blvd$*$ Beavercreek$*$ OH 45431,Dayton,45431,39.767824,-84.053477,207,4.3,17337885,0
b227,Maid Rite Sandwich Shoppe,121 N Broadway St$*$ Greenville$*$ OH 45331,Dayton,45331,40.1046,-84.6355,235,4.3,17336728,0
b228,Troni's Pizza & Restaurant,1314 E Dorothy Ln$*$ Dayton$*$ OH 45419,Dayton,45419,39.7038,-84.1429,240,4.2,17336427,0
b229,City Barbeque,5 E Franklin St$*$ Centerville$*$ OH 45459,Dayton,45459,39.628558,-84.15864,290,4.2,17335673,0
b230,Tsao's Cuisine,3989 B Colonel Glenn Hwy$*$ Dayton$*$ OH 45431,Dayton,45431,39.77464,-84.079759,470,4.2,17337820,0
b231,J Alexander's,7970 Washington Village Dr$*$ Dayton$*$ OH 45459,Dayton,45459,39.6312,-84.1973,262,4.2,17335893,0
b232,Rue Dumaine,1061 Miamisburg-Centerville Road$*$ Dayton$*$ OH 45459,Dayton,45459,39.628287,-84.189338,329,4.2,17337832,0
b233,Winds Cafe,215 Xenia Ave$*$ Yellow Springs$*$ OH 45387,Dayton,45387,39.8059,-83.8889,333,4.2,17337744,0
b234,Chicago Gyros and Dogs,3979 Indian Ripple Rd$*$ Beavercreek$*$ OH 45440,Dayton,45440,39.6947272,-84.0838673,254,4.2,17337855,0
b235,Los Reyes,2290 E Dorothy Ln$*$ Kettering$*$ OH 45420,Dayton,45420,39.702206,-84.122191,247,4.2,17335989,0
b236,Schuler's Bakery,457 E Main St$*$ Springfield$*$ OH 45503,Dayton,45503,39.924,-83.8027,228,4.2,17337307,0
b237,North China Restaurant,6090 Far Hills Ave$*$ Dayton$*$ OH 45459,Dayton,45459,39.6575,-84.1572,188,4.2,17336085,0
b238,Classic Pizza,7129 Taylorsville Rd$*$ Huber Heights$*$ OH 45424,Dayton,45424,39.861039,-84.107405,185,4.2,17335677,0
b239,Main Street Deli,465 N Main St$*$ Springboro$*$ OH 45066,Dayton,45066,39.5684,-84.2319,219,4.2,17337098,0
b240,Pearl Bay Thai & Asian,133 E Dayton Yellow Springs Rd$*$ Fairborn$*$ OH 45324,Dayton,45324,39.790925,-84.022915,255,4.2,17337887,0
b241,Kai Sushi Cafe,108 Byers Rd$*$ Miamisburg$*$ OH 45342,Dayton,45342,39.64,-84.2351,198,4.2,17336861,0
b242,Tony's Italian Kitchen,615 S Main St$*$ Englewood$*$ OH 45322,Dayton,45322,39.8686,-84.2935,209,4.2,17336575,0
b243,Voltzy's Hamburger & Root Beer Stand,4668 Springboro Pike$*$ Moraine$*$ OH 45439,Dayton,45439,39.7002,-84.2091,170,4.2,17336921,0
b244,Mamma DiSalvo's Italian Ristorante,1375 E Stroop Rd$*$ Kettering$*$ OH 45429,Dayton,45429,39.688745,-84.142367,500,4.1,17337816,0
b245,Coco's Bistro,250 Warren St$*$ Dayton$*$ OH 45402,Dayton,45402,39.7503607,-84.1869689,339,4.1,17337761,0
b246,Young's Jersey Dairy,6880 Springfield Xenia Rd$*$ Yellow Springs$*$ OH 45387,Dayton,45387,39.8293,-83.8703,240,4.1,17337746,0
b247,Oakwood Club,2414 Far Hills Ave$*$ Dayton$*$ OH 45419,Dayton,45419,39.7094,-84.1707,270,4.1,17336099,0
b248,Amar India,2759 Miamisburg Centerville Rd$*$ Dayton$*$ OH 45459,Dayton,45459,39.6369,-84.2196,294,4.1,17335464,0
b249,Giovanni's Pizza,215 W Main St$*$ Fairborn$*$ OH 45324,Dayton,45324,39.8217,-84.0241,210,4.1,17336620,0
b250,Akashi Sushi Bar,2020 Harshman Road$*$ Dayton$*$ OH 45424,Dayton,45424,39.798909,-84.129327,237,4.1,17337817,0
b251,Taco Loco,5392 Burkhardt Rd$*$ Dayton$*$ OH 45431,Dayton,45431,39.7587,-84.1117,160,4.1,17336389,0
b252,Tickets Pub & Eatery,7 W Main St$*$ Fairborn$*$ OH 45324,Dayton,45324,39.8216,-84.0212,174,4.1,17336668,0
b253,Iyara Thai Restaurant,6118 Chambersburg Rd$*$ Huber Heights$*$ OH 45424,Dayton,45424,39.846929,-84.116542,191,4.1,17337908,0
b254,Mike & Rosy's Deli,330 W Mccreight Ave$*$ Springfield$*$ OH 45504,Dayton,45504,39.9392,-83.8155,251,4.1,17337253,0
b255,Hamburger Wagon,12 E Central Ave$*$ Miamisburg$*$ OH 45342,Dayton,45342,39.6417,-84.2888,207,4.1,17336855,0
b256,India Chaat Cafe,984 Miamisburg-Centerville Rd$*$ Dayton$*$ OH 45459,Dayton,45459,39.627454,-84.187437,182,4.1,17337909,0
b257,La Fiesta Mexican Restaurant,836 W Main St$*$ Troy$*$ OH 45373,Dayton,45373,40.0432,-84.2119,199,4.1,17337447,0
b258,Chop Suey Carry Out,1465 E Dorothy Ln$*$ Dayton$*$ OH 45429,Dayton,45429,39.7038,-84.14,156,4.1,17335658,0
b259,Sakai Japanese Bistro,2303 W Main St$*$ Troy$*$ OH 45373,Dayton,45373,40.0585,-84.2463,174,4.1,17337469,0
b260,Mel-O-Dee Restaurant & Catering,2350 S Dayton Lakeview Rd$*$ New Carlisle$*$ OH 45344,Dayton,45344,39.9161,-84.0371,207,4.1,17336934,0
b261,Gyro Palace,4884 Airway Rd$*$ Dayton$*$ OH 45431,Dayton,45431,39.7705,-84.1201,149,4.1,17335864,0
b262,Yen Ching House,625 S Main St$*$ Englewood$*$ OH 45322,Dayton,45322,39.8683,-84.2929,136,4.1,17336577,0
b263,Jell's Sports Grill,117 E Main St$*$ Eaton$*$ OH 45320,Dayton,45320,39.7438,-84.6361,108,4.1,17336515,0
b264,Telemetry Coffee Roasters,83 N Main Sreet$*$ Cedarville$*$ OH 45314,Dayton,45314,39.741925,-83.807405,121,4.1,17337847,0
b265,Hong Kong Chinese Restaurant,14 S Tippecanoe Dr$*$ Tipp City$*$ OH 45371,Dayton,45371,39.9604,-84.1848,127,4.1,17337372,0
b266,McIntosh's Pub n Grub,6 E Franklin St$*$ Bellbrook$*$ OH 45305,Dayton,45305,39.6361,-84.0704,151,4.1,17335357,0
b267,Pine Club,1926 Brown Street$*$ Dayton$*$ OH 45409,Dayton,45409,39.7342,-84.1803,550,4,17336166,0
b268,Jay's Seafood,225 E 6th St$*$ Dayton$*$ OH 45402,Dayton,45402,39.756133,-84.186995,274,4,17335899,0
b269,The Pub Beavercreek,39 Greene Blvd$*$ Beavercreek$*$ OH 45440,Dayton,45440,39.695258,-84.102544,224,4,17337754,0
b270,Archer's Tavern,9496 Dayton-Lebanon Pike$*$ Centerville$*$ OH 45458,Dayton,45458,39.60619,-84.16064,259,4,17337944,0
b271,Ha Ha Pizza,108 Xenia Ave$*$ Yellow Springs$*$ OH 45387,Dayton,45387,39.8072,-83.8876,234,4,17337739,0
b272,City Barbeque,2330 N Fairfield Rd$*$ Beavercreek$*$ OH 45431,Dayton,45431,39.7572,-84.0536,259,4,17335344,0
b273,bd's Mongolian Grill,4488 Glengarry Dr$*$ Dayton$*$ OH 45440,Dayton,45440,39.6938826,-84.1044292,319,4,17335511,0
b274,Brio Tuscan Grille,4459 Cedar Park Dr$*$ Dayton$*$ OH 45440,Dayton,45440,39.6941111,-84.1031274,232,4,17335551,0
b275,Milano's Atlantic City Subs,1834 Brown St$*$ Dayton$*$ OH 45409,Dayton,45409,39.7351,-84.1806,207,4,17336060,0
b276,Hawthorn Grill,1222 E. Stroop Rd.$*$ Dayton$*$ OH 45429,Dayton,45429,39.688638,-84.14537,223,4,17337941,0
b277,La Piazza,2 N Market St$*$ Troy$*$ OH 45373,Dayton,45373,40.04,-84.2033,204,4,17337446,0
b278,Hickory River Smokehouse,135 S Garber Dr$*$ Tipp City$*$ OH 45371,Dayton,45371,39.96,-84.1878,138,4,17337369,0
b279,Little Saigon,1718 Woodman Dr$*$ Dayton$*$ OH 45420,Dayton,45420,39.7291,-84.122,174,4,17335977,0
b280,Hinders Sports Bar,902 W Main Street$*$ Tipp City$*$ OH 45371,Dayton,45371,39.9608,-84.1842,145,4,17337370,0
b281,Dorothy Lane Market,740 N. Main Street$*$ Springboro$*$ OH 45066,Dayton,45066,39.576758,-84.230675,122,4,17337933,0
b282,First Watch,2614 Colonel Glenn Hwy$*$ Fairborn$*$ OH 45324,Dayton,45324,39.778249,-84.053894,166,4,17336613,0
b283,Yung's Cafe,1328 Kauffman Ave$*$ Fairborn$*$ OH 45324,Dayton,45324,39.8044,-84.0323,126,4,17336643,0
b284,5th Street Wine & Deli,416 E 5th St$*$ Dayton$*$ OH 45402,Dayton,45402,39.7571,-84.1848,122,4,17335451,0
b285,BRAVO Cucina Italiana,Dayton Mall$*$ 2770 Miamisburg Centerville Road$*$ Dayton$*$ OH 45459,Dayton,45459,39.6372318,-84.2216576,148,4,17335547,0
b286,Ajanta India Restaurant,3063 Woodman Dr$*$ Kettering$*$ OH 45420,Dayton,45420,39.700408,-84.123627,190,4,17335460,0
b287,Hunan Wok,997 S Main St$*$ Centerville$*$ OH 45458,Dayton,45458,39.6106,-84.1608,134,4,17335412,0
b288,Oregon Express,336 E 5TH St$*$ Dayton$*$ OH 45402,Dayton,45402,39.7572,-84.1864,137,4,17336111,0
b289,Slyder's Tavern,836 Watervliet Ave$*$ Dayton$*$ OH 45420,Dayton,45420,39.730045,-84.140102,131,4,17336283,0
b290,Shen's Szechuan and Sushi,7580 Poe Ave$*$ Dayton$*$ OH 45414,Dayton,45414,39.8569311,-84.1872132,116,4,17336071,0
b291,King's Table,2348 Grange Hall Road$*$ Beavercreek$*$ OH 45431,Dayton,45431,39.759596,-84.077079,127,4,17337891,0
b292,K's Hamburger Shop,117 E Main St$*$ Troy$*$ OH 45373,Dayton,45373,40.0391,-84.2018,111,4,17337444,0
b293,Graeter's Ice Cream,2 N Main St$*$ Centerville$*$ OH 45459,Dayton,45459,39.6285,-84.1587,146,4,17335411,0
b294,Chipotle Mexican Grill,3286 New Germany Trebein Rd$*$ Dayton$*$ OH 45431,Dayton,45431,39.7706,-84.0541,150,4,17335653,0
b295,Sam & Ethel's Restaurant,120 E Main St$*$ Tipp City$*$ OH 45371,Dayton,45371,39.9611,-84.1696,88,4,17337378,0
b296,Crabill's Hamburger Shop,727 Miami St$*$ Urbana$*$ OH 43078,Dayton,43078,40.1086,-83.7622,106,4,17337497,0
b297,Monster Pizza,199 E Alex Bell Rd$*$ Centerville$*$ OH 45459,Dayton,45459,39.643937,-84.150444,107,4,17337760,0
b298,Airline Dairy Creme,224 N Dixie Dr$*$ Vandalia$*$ OH 45377,Dayton,45377,39.8948,-84.1983,84,4,17337528,0
b299,D J's Pizza Alley,18 S 2nd St$*$ Tipp City$*$ OH 45371,Dayton,45371,39.9609,-84.1697,86,4,17337363,0
b300,Dublin Pub,300 Wayne Ave$*$ Dayton$*$ OH 45410,Dayton,45410,39.7572,-84.1819,224,3.9,17335760,0
b301,Amlie's,2424 N Davidson Street$*$ Charlotte$*$ NC 28205,Charlotte,28205,35.24119,-80.81283,1314,4.9,17148530,0
b302,The Cowfish Sushi Burger Bar,4310 Sharon Road$*$ Suite X05$*$ Charlotte$*$ NC 28211,Charlotte,28211,35.152551,-80.827317,1712,4.9,17150127,0
b303,Soul Gastrolounge,1500-B Central Avenue$*$ Charlotte$*$ NC 28205,Charlotte,28205,35.22029,-80.813307,787,4.8,17149680,0
b304,Toyama Express,2130 E Arbors Drive$*$ Charlotte$*$ NC 28262,Charlotte,28262,35.337772,-80.756986,560,4.7,17148399,0
b305,The Lodge,7725 Colony Road Suite 4$*$ Charlotte$*$ NC 28226,Charlotte,28226,35.107536,-80.807886,691,4.7,17149641,0
b306,Savor Cafe,1404 W Morehead Street$*$ Charlotte$*$ NC 28208,Charlotte,28208,35.229155,-80.863995,424,4.7,17149806,0
b307,Bad Daddy's,1626 East Boulevard$*$ Charlotte$*$ NC 28203,Charlotte,28203,35.199007,-80.8408317,1363,4.6,17148552,0
b308,Pike's,1930 Camden Road$*$ Charlotte$*$ NC 28203,Charlotte,28203,35.211284,-80.86008,1056,4.6,17147968,0
b309,Vietnam Grille,5615 South Boulevard$*$ Charlotte$*$ NC 28217,Charlotte,28217,35.159533,-80.876005,749,4.6,17149667,0
b310,Little Village Grill,710 W Trade Street$*$ NC 28202,Charlotte,28202,35.232179,-80.848506,373,4.6,17147625,0
b311,Cabo Fish Taco,3201 N Davidson Street$*$ Charlotte$*$ NC 28205,Charlotte,28205,35.247135,-80.805728,1531,4.5,17146849,0
b312,Price's Chicken Coop,1614 Camden Road$*$ Charlotte$*$ NC 28203,Charlotte,28203,35.214563,-80.857329,1093,4.5,17147994,0
b313,Dish,1220 Thomas Avenue$*$ Charlotte$*$ NC 28205,Charlotte,28205,35.219167,-80.812038,940,4.5,17147122,0
b314,Bad Daddy's,15105 John J Delaney Drive$*$ Charlotte$*$ NC 28277,Charlotte,28277,35.0537776,-80.8467812,865,4.5,17149790,0
b315,Original Pancake House,4736 Sharon Road$*$ Charlotte$*$ NC 28210,Charlotte,28210,35.147255,-80.831618,604,4.5,17147876,0
b316,Alexander Michael's,401 W 9th Street$*$ Charlotte$*$ NC 28202,Charlotte,28202,35.233628,-80.840815,580,4.5,17146657,0
b317,Taqueria la Unica,4305 Old Monroe Road$*$ NC 28079,Charlotte,28079,35.067698,-80.678044,345,4.5,17149730,0
b318,Jonathan's,10630 Independence Pointe Parkway$*$ NC 28105,Charlotte,28105,35.121759,-80.707777,349,4.5,17149837,0
b319,Pinky's Westside Grill,1600 W Morehead Street$*$ Charlotte$*$ NC 28208,Charlotte,28208,35.2291083,-80.8674621,649,4.4,17150169,0
b320,Midwood Smokehouse,1401 Central Avenue$*$ Charlotte$*$ NC 28205,Charlotte,28205,35.220746,-80.815072,582,4.4,17150362,0
b321,Dandelion Market,118 W 5th Street$*$ Charlotte$*$ NC 28202,Charlotte,28202,35.22833,-80.84208,658,4.4,17149867,0
b322,Lupie's Cafe,2718 Monroe Road$*$ Charlotte$*$ NC 28205,Charlotte,28205,35.204228,-80.808404,614,4.4,17147655,0
b323,New Zealand Cafe,1717 Sardis Road N$*$ Suite 6A$*$ Charlotte$*$ NC 28270,Charlotte,28270,35.139858,-80.73667,654,4.4,17147825,0
b324,Lang Van,3019 Shamrock Drive$*$ Charlotte$*$ NC 28215,Charlotte,28215,35.23666,-80.77507,541,4.4,17147586,0
b325,Roasting Company,1521 Montford Drive$*$ Charlotte$*$ NC 28209,Charlotte,28209,35.170767,-80.849556,511,4.4,17148071,0
b326,La Unica Mexican Restaurant,16203 Northcross Drive$*$ Huntersville$*$ Charlotte$*$ NC 28078,Charlotte,28078,35.436652,-80.870662,471,4.4,17149565,0
b327,Rockstore Bar-B-Q,3116 Old Monroe Road$*$ Stallings$*$ NC 28104,Charlotte,28104,35.081825,-80.692335,396,4.4,17148240,0
b328,Brooks Sandwich House,2710 N Brevard Street$*$ NC 28205,Charlotte,28205,35.245329,-80.811522,288,4.4,17146818,0
b329,Long Creek Fish Fry,1425 Lower Dallas Highway$*$ NC 28034,Charlotte,28034,35.3053,-81.1579,301,4.4,17148684,0
b330,Pho Nam,18059 W Catawba Avenue Suite 5$*$ NC 28031,Charlotte,28031,35.4592617,-80.8885843,272,4.4,17149793,0
b331,Chima Brazilian Steakhouse,139 S Tryon Street$*$ Charlotte$*$ NC 28202,Charlotte,28202,35.226775,-80.843428,1048,4.3,17149532,0
b332,Ru Sans,2440 Park Road$*$ Charlotte$*$ NC 28203,Charlotte,28203,35.197861,-80.851802,1182,4.3,17148099,0
b333,Mac's Speed Shop,2511 South Boulevard$*$ Charlotte$*$ NC 28203,Charlotte,28203,35.202942,-80.864358,1673,4.3,17147666,0
b334,Firebirds Wood Fired Grill,7716 Rea Road$*$ Charlotte$*$ NC 28277,Charlotte,28277,35.0620547,-80.815844,1271,4.3,17147236,0
b335,Crepe Cellar,3116 N Davidson Street$*$ Charlotte$*$ NC 28205,Charlotte,28205,35.246471,-80.806348,647,4.3,17149674,0
b336,300 East,300 East Boulevard$*$ Charlotte$*$ NC 28203,Charlotte,28203,35.210862,-80.856527,617,4.3,17146635,0
b337,Intermezzo Pizzeria and Cafe,1427 E 10th Street$*$ Charlotte$*$ NC 28204,Charlotte,28204,35.222237,-80.822359,427,4.3,17147448,0
b338,Terrace Cafe,4625 Piedmont Row Suite 105$*$ Charlotte$*$ NC 28210,Charlotte,28210,35.153302,-80.839577,562,4.3,17149788,0
b339,Waldhorn,12101 S Lancaster Highway$*$ NC 28134,Charlotte,28134,35.076944,-80.883573,668,4.3,17148453,0
b340,Good Food on Montford,1701 Montford Drive$*$ Charlotte$*$ NC 28209,Charlotte,28209,35.170842,-80.848583,545,4.3,17149639,0
b341,Fiamma,Park Square Shopping Center$*$ 2418 Park Road$*$ Charlotte$*$ NC 28203,Charlotte,28203,35.197971,-80.85182,445,4.3,17147231,0
b342,Jim 'N Nick's Bar-B-Q,13840 Steele Creek Road$*$ NC 28273,Charlotte,28273,35.106239,-80.988791,607,4.3,17148531,0
b343,Brickhouse,209 Delburg Street$*$ Davidson$*$ NC 28036,Charlotte,28036,35.503612,-80.847988,525,4.3,17149563,0
b344,Killingtons,10010 Rose Commons Dr$*$ Huntersville$*$ NC 28078,Charlotte,28078,35.409011,-80.860859,638,4.3,17148631,0
b345,Brixx,Birkdale Village$*$ 16915 Birkdale Commons Parkway$*$ Charlotte$*$ NC 28078,Charlotte,28078,35.446162,-80.87922,471,4.3,17146811,0
b346,Angela's,9705 Mintworth Avenue$*$ NC 28227,Charlotte,28227,35.17255,-80.710369,409,4.3,17149666,0
b347,Portofino's,5126 Park Road$*$ Suite 1C$*$ Charlotte$*$ NC 28209,Charlotte,28209,35.160682,-80.849083,495,4.3,17147988,0
b348,Hazelnuts Crperie,200 S Tryon Street$*$ Charlotte$*$ NC 28281,Charlotte,28281,35.226246,-80.844491,203,4.3,17150826,0
b349,My Bento Asian Diner,Town Center Plaza$*$ 8640 University City Boulevard$*$ Charlotte$*$ NC 28213,Charlotte,28213,35.2967132,-80.7376377,547,4.3,17149854,0
b350,500 Degrees Pizzeria,6037 South Boulevard$*$ NC 28217,Charlotte,28217,35.15383,-80.876123,267,4.3,17149772,0
b351,Mama Ricotta's,601 S Kings Drive$*$ Suite AA$*$ Charlotte$*$ NC 28204,Charlotte,28204,35.209857,-80.835932,960,4.2,17147679,0
b352,Cajun Queen,1800 E 7th Street$*$ NC 28204,Charlotte,28204,35.214639,-80.820929,674,4.2,17146862,0
b353,Basil,210 N Church Street$*$ Charlotte$*$ NC 28202,Charlotte,28202,35.22921,-80.842158,702,4.2,17149683,0
b354,Cafe Monte,6700 Fairview Road$*$Suite 108$*$ Charlotte$*$ NC 28210,Charlotte,28210,35.147713,-80.829113,852,4.2,17148534,0
b355,Epic Chophouse,104 S Main Street$*$ Mooresville$*$ NC 28115,Charlotte,28115,35.582357,-80.812902,457,4.2,17150184,0
b356,131 Main,9886 Rea Road$*$ Charlotte$*$ NC 28277,Charlotte,28277,35.034243,-80.805375,594,4.2,17148614,0
b357,Diamond,1901 Commonwealth Avenue$*$ NC 28205,Charlotte,28205,35.218862,-80.813282,445,4.2,17147107,0
b358,Famous Toastery,101 N Main Street$*$ Davidson$*$ NC 28036,Charlotte,28036,35.499177,-80.848772,523,4.2,17149693,0
b359,Brio,4720 Piedmont Row Drive$*$ Charlotte$*$ NC 28210,Charlotte,28210,35.151683,-80.839925,465,4.2,17149544,0
b360,Joel's,Morrison Plantation$*$ 110A Williamson Road$*$ Mooresville$*$ NC 28117,Charlotte,28117,35.5857699,-80.875496,712,4.2,17147501,0
b361,Landmark Diner,4429 Central Avenue$*$ Charlotte$*$ NC 28205,Charlotte,28205,35.213643,-80.768724,431,4.2,17147584,0
b362,Firebirds Wood Fired Grill,6801 Northlake Mall Drive$*$ Charlotte$*$ NC 28216,Charlotte,28216,35.349937,-80.850339,423,4.2,17147235,0
b363,Alton's Kitchen & Cocktails,19918 N Cove Road$*$ Cornelius$*$ NC 28031,Charlotte,28031,35.479336,-80.894254,371,4.2,17149910,0
b364,Hawthorne's,1701 E 7th Street$*$ Charlotte$*$ NC 28204,Charlotte,28204,35.215767,-80.821975,415,4.2,17147394,0
b365,AmberJack,4253 S New Hope Road$*$ Cramerton$*$ NC 28056,Charlotte,28056,35.2188023,-81.0828958,321,4.2,17150172,0
b366,Cajun Yard Dog,8036 Providence Road$*$ Suite 900$*$ Charlotte$*$ NC 28277,Charlotte,28277,35.098556,-80.778609,471,4.2,17146864,0
b367,Passion8,1523 Elizabeth Avenue$*$ Suite 130$*$ NC 28204,Charlotte,28204,35.214165,-80.826742,329,4.2,17149617,0
b368,Viva Chicken,1617 Elizabeth Avenue$*$ Charlotte$*$ NC 28204,Charlotte,28204,35.213449,-80.825939,256,4.2,17151470,0
b369,Pizza Peel,4422 Colwick Road$*$ Charlotte$*$ NC 28211,Charlotte,28211,35.176826,-80.797741,501,4.2,17148528,0
b370,Osaka Japanese Cuisine,3531 Matthews-Mint Hill Road$*$ NC 28105,Charlotte,28105,35.137981,-80.68332,345,4.2,17147878,0
b371,Viet Thai,8314 Pineville-Matthews Road Suite 901$*$ Charlotte$*$ NC 28226,Charlotte,28226,35.087713,-80.858667,288,4.2,17148441,0
b372,Fern,1323 Central Avenue$*$ Charlotte$*$ NC 28205,Charlotte,28205,35.2208065,-80.8157737,246,4.2,17150509,0
b373,Zio,116 Middleton Drive Charlotte$*$ NC 28207,Charlotte,28207,35.197646,-80.825499,325,4.2,17148515,0
b374,Zeitouni,3419 Toringdon Way Suite 124$*$ Charlotte$*$ NC 28277,Charlotte,28277,35.068638,-80.842915,274,4.2,17150451,0
b375,Dive N,109 N Polk Street$*$ NC 28134,Charlotte,28134,35.085348,-80.886904,237,4.2,17149803,0
b376,Bagel Bin,Northcross$*$ 9815 Sam Furr Road Suite I$*$ NC 28078,Charlotte,28078,35.442068,-80.861476,229,4.2,17146715,0
b377,Tony's Ice Cream,604 E Franklin Boulevard$*$ Gastonia$*$ NC 28054,Charlotte,28054,35.262436,-81.173182,302,4.2,17148943,0
b378,Tony's Pizza,9548 Mount Holly-Huntersville Road$*$ Charlotte$*$ NC 28078,Charlotte,28078,35.357386,-80.868146,237,4.2,17148387,0
b379,Luisa's Brick Oven,Montford Abbey$*$ 1730 Abbey Place$*$ Charlotte$*$ NC 28209,Charlotte,28209,35.169379,-80.847447,205,4.2,17147653,0
b380,Jin Jin,1333A Shearers Road$*$ Mooresville$*$ NC 28115,Charlotte,28115,35.534906,-80.800746,194,4.2,17149845,0
b381,Capital Grille,201 N Tryon Street$*$ Charlotte$*$ NC 28202,Charlotte,28202,35.228159,-80.841882,536,4.1,17146871,0
b382,Mert's Heart and Soul,214 N College Street$*$ Charlotte$*$ NC 28202,Charlotte,28202,35.227127,-80.84048,987,4.1,17147744,0
b383,131 Main,17830 N Statesville Road$*$ Cornelius$*$ NC 28031,Charlotte,28031,35.4572665,-80.8682139,452,4.1,17149747,0
b384,P.F. Chang's,6809 Phillips Place Court$*$ NC 28210,Charlotte,28210,35.146581,-80.827175,912,4.1,17147887,0
b385,Zada Jane's Corner Cafe,1601 Central Avenue$*$ NC 28205,Charlotte,28205,35.220412,-80.812085,862,4.1,17148536,0
b386,Cantina 1511,4721 Park Road Suite B$*$ Charlotte$*$ NC 28209,Charlotte,28209,35.20023,-80.841894,999,4.1,17146869,0
b387,Mimosa Grill,Two Wells Fargo Center$*$327 S Tryon Street$*$ Charlotte$*$ NC 28202,Charlotte,28202,35.225329,-80.845572,370,4.1,17147766,0
b388,Maggiano's,4400 Sharon Road$*$ Charlotte$*$ NC 28211,Charlotte,28211,35.151246,-80.828827,643,4.1,17149629,0
b389,eeZ Fusion,Birkdale Village$*$ 16925 Birkdale Commons Parkway$*$ Charlotte$*$ NC 28078,Charlotte,28078,35.446203,-80.879122,602,4.2,17147179,0
b390,Ilios Noche,11508 Providence Road$*$ Suite I$*$ Charlotte$*$ NC 28277,Charlotte,28277,35.054023,-80.769803,695,4.1,17147444,0
b391,Del Frisco's,Piedmont Town Center$*$ 4725 Piedmont Row Suite 170$*$ Charlotte$*$ NC 28209,Charlotte,28209,35.151684,-80.839595,482,4.1,17147095,0
b392,Sullivan's Steakhouse,1928 South Boulevard$*$ Charlotte$*$ NC 28203,Charlotte,28203,35.210526,-80.859246,486,4.1,17148288,0
b393,Beef & Bottle,4538 South Boulevard$*$ Charlotte$*$ NC 28209,Charlotte,28209,35.180147,-80.875999,427,4.1,17146734,0
b394,Bistro La Bon,1322 Central Avenue$*$ Charlotte$*$ NC 28205,Charlotte,28205,35.220706,-80.816265,362,4.1,17150005,0
b395,BrickTop's,Specialty Shops$*$ 6401 Morrison Boulevard Suite 1B$*$ Charlotte$*$ NC 28211,Charlotte,28211,35.156338,-80.831878,447,4.1,17146808,0
b396,The Flying Saucer Draught Emporium,Terraces At University Place$*$ 9605 N Tryon Street Suite A$*$ Charlotte$*$ NC 28262,Charlotte,28262,35.316954,-80.738968,446,4.1,17147264,0
b397,Thai Taste,324 East Boulevard$*$ Dilworth$*$ Charlotte$*$ NC 28203,Charlotte,28203,35.210508,-80.856277,459,4.1,17148369,0
b398,Jake's Good Eats,12721 Albemarle Road$*$ NC 28227,Charlotte,28227,35.223557,-80.639049,294,4.1,17149634,0
b399,Yama Asian Fusion,720 Governor Morrison Street Suite 130$*$ Charlotte$*$ NC 28211,Charlotte,28211,35.15,-80.82,316,4.1,17148612,0
b400,Luna's Living Kitchen,2102 South Boulevard$*$ Suite 300$*$ Charlotte$*$ NC 28203,Charlotte,28203,35.208548,-80.86153,244,4.1,17150072,0
b401,Ha Long Bay,1353 Williamson St.$*$ Madison$*$ WI 53703,Madison,53703,43.085073,-89.361469,1028,4.9,17503434,0
b402,The Old Fashioned,23 N Pinckney St$*$ Madison$*$ WI 53703,Madison,53703,43.076277,-89.383534,1610,4.8,17502451,0
b403,Mickies Dairy Bar,1511 Monroe St$*$ Madison$*$ WI 53711,Madison,53711,43.0676,-89.4128,814,4.7,17502401,0
b404,Weary Traveler Freehouse,1201 Williamson St$*$ Madison$*$ WI 53703,Madison,53703,43.0833,-89.364,649,4.6,17502749,0
b405,Thai Noodles,5957 Mckee Rd$*$ Fitchburg$*$ WI 53719,Madison,53719,43.01524,-89.457519,494,4.6,17503422,0
b406,Great Dane Brew Pub,123 E Doty St$*$ Madison$*$ WI 53703,Madison,53703,43.0741,-89.3806,956,4.5,17502234,0
b407,Lazy Jane's Cafe & Bakery,1358 Williamson St$*$ Madison$*$ WI 53703,Madison,53703,43.0853,-89.3616,490,4.5,17502341,0
b408,Alchemy,1980 Atwood Ave.$*$ Madison$*$ WI 53704,Madison,53704,43.092282,-89.355459,485,4.5,17503351,0
b409,Sala Thai,36 S Fair Oaks Ave$*$ Madison$*$ WI 53714,Madison,53714,43.098753,-89.333995,345,4.5,17503358,0
b410,Monty's Blue Plate Diner,2089 Atwood Ave$*$ Madison$*$ WI 53704,Madison,53704,43.0925,-89.3521,601,4.4,17502001,0
b411,Brasserie V,1923 Monroe St.$*$ Madison$*$ WI 53711,Madison,53711,43.064109,-89.41809,487,4.4,17503366,0
b412,Ian's Pizza by the Slice,319 N Frances St$*$ Madison$*$ WI 53703,Madison,53703,43.0725,-89.3956,633,4.4,17502267,0
b413,Tornado Steak House,116 S Hamilton St$*$ Madison$*$ WI 53703,Madison,53703,43.0726,-89.3844,646,4.4,17502709,0
b414,Marigold Kitchen,118 S Pinckney St$*$ Madison$*$ WI 53703,Madison,53703,43.0744,-89.3819,576,4.4,17502369,0
b415,Dotty Dumpling's Dowry,317 N Frances St$*$ Madison$*$ WI 53703,Madison,53703,43.0722,-89.3956,732,4.3,17502158,0
b416,Sushi Muramoto,546 N Midvale Blvd$*$ Madison$*$ WI 53705,Madison,53705,43.071994,-89.451384,509,4.3,17503375,0
b417,Eno Vino Wine Bar & Bistro,601 Junction Rd$*$ Madison$*$ WI 53717,Madison,53717,43.0731,-89.5258,481,4.3,17502177,0
b418,Ian's Pizza,100 State St$*$ Madison$*$ WI 53703,Madison,53703,43.0747352,-89.3862121,515,4.3,17502268,0
b419,Pizza Brutta,1805 Monroe St$*$ Madison$*$ WI 53711,Madison,53711,43.065207,-89.416452,297,4.3,17503392,0
b420,Greenbush Bakery,1305 Regent Street$*$ Madison$*$ WI 53715,Madison,53715,43.0676,-89.4076,342,4.3,17502238,0
b421,Cafe La Bellitalia,1026 N Sherman Ave$*$ Madison$*$ WI 53704,Madison,53704,43.1102,-89.364,348,4.3,17502040,0
b422,La Baguette,7424 Mineral Point Rd$*$ Madison$*$ WI 53717,Madison,53717,43.060871,-89.51084,280,4.3,17503384,0
b423,Salvatore's Tomato Pies,503 W. Main St.$*$ Sun Prairie$*$ WI 53590,Madison,53590,43.18294,-89.220311,256,4.3,17503724,0
b424,The Nile,6119 Odana Road$*$ Madison$*$ WI 53719,Madison,53719,43.053326,-89.485676,250,4.3,17503651,0
b425,Bonfyre American Grille,2601 West Beltline Highway$*$ Madison$*$ WI 53713,Madison,53713,43.034786,-89.42118,575,4.2,17503464,0
b426,Samba Brazilian Grill,240 W Gilman St$*$ Madison$*$ WI 53703,Madison,53703,43.0759,-89.3923,628,4.2,17502590,0
b427,Saigon Noodle,6754 Odana Rd$*$ Madison$*$ WI 53719,Madison,53719,43.0567,-89.4977,233,4.2,17502587,0
b428,Lombardino's Restaurant,2500 University Ave$*$ Madison$*$ WI 53705,Madison,53705,43.0722,-89.4288,424,4.2,17502348,0
b429,Hubbard Avenue Diner,7445 Hubbard Ave$*$ Middleton$*$ WI 53562,Madison,53562,43.095,-89.5098,562,4.2,17502848,0
b430,Sardine,617 Williamson St$*$ Madison$*$ WI 53703,Madison,53703,43.0761,-89.3751,457,4.2,17502592,0
b431,Taqueria Guadalajara,1033 S Park St$*$ Madison$*$ WI 53715,Madison,53715,43.055835,-89.397564,250,4.2,17503338,0
b432,L'Etoile Restaurant,1 South Pinckney Street$*$ Madison$*$ WI 53703,Madison,53703,43.075786,-89.383231,334,4.2,17503345,0
b433,Greenbush Bar,914 Regent St$*$ Madison$*$ WI 53715,Madison,53715,43.0678,-89.4013,268,4.2,17502239,0
b434,Red,316 West Washington Avenue$*$ Suite 100$*$ Madison$*$ Wisconsin.$*$ WI 53703,Madison,53703,43.074801,-89.381717,209,4.2,17503679,0
b435,Lao Laan Xang Restaurant,2098 Atwood Ave$*$ Madison$*$ WI 53704,Madison,53704,43.0928,-89.352,243,4.2,17502330,0
b436,Habanero's Mexican Grill,2229 S. Stoughton Rd.$*$ Madison$*$ WI 53716,Madison,53716,43.065936,-89.308639,184,4.2,17503438,0
b437,Famous Yeti's Pizza,971 N Page St$*$ Stoughton$*$ WI 53589,Madison,53589,42.9266576,-89.2225748,162,4.2,17503758,0
b438,Sjolinds Chocolate House,219 E Main St$*$ Mt Horeb$*$ WI 53572,Madison,53572,43.008513,-89.73736,153,4.2,17503328,0
b439,Great Dane Pub & Brewery,357 Price Pl$*$ Madison$*$ WI 53705,Madison,53705,43.0705,-89.4522,368,4.1,17502235,0
b440,Graze,1 S Pinckney Street$*$ Madison$*$ WI 53703,Madison,53703,43.075444,-89.382871,469,4.1,17503559,0
b441,Cooper's Tavern,20 W. Mifflin$*$ Madison$*$ WI 53703,Madison,53703,43.075386,-89.38557,319,4.1,17503480,0
b442,Glass Nickel Pizza Co,2916 Atwood Ave$*$ Madison$*$ WI 53704,Madison,53704,43.094,-89.3414,337,4.1,17502223,0
b443,Restaurant Muramoto,225 King St$*$ Madison$*$ WI 53703,Madison,53703,43.0745,-89.3797,435,4.1,17502566,0
b444,The Roman Candle,1054 Williamson St Ste A$*$ Madison$*$ WI 53703,Madison,53703,43.0815,-89.3671,303,4.1,17502578,0
b445,Swagat Restaurant,707 N High Point Rd$*$ Madison$*$ WI 53717,Madison,53717,43.0753,-89.5184,326,4.1,17502670,0
b446,Kabul Afghanistan Restaurant,540 State St$*$ Madison$*$ WI 53703,Madison,53703,43.0747,-89.3943,278,4.1,17502314,0
b447,Bandung Indonesian Restaurant,600 Williamson St$*$ Madison$*$ WI 53703,Madison,53703,43.0763,-89.3756,262,4.1,17501972,0
b448,Smoky Jon's #1 BBQ,2310 Packers Ave$*$ Madison$*$ WI 53704,Madison,53704,43.123226,-89.355359,262,4.1,17503341,0
b449,Original Pancake House,5518 University Ave$*$ Madison$*$ WI 53705,Madison,53705,43.0834,-89.4761,296,4.1,17502461,0
b450,The Green Owl Cafe,1970 Atwood Ave$*$ Madison$*$ WI 53704,Madison,53704,43.092247,-89.35551,239,4.1,17503468,0
b451,A Pig in a Fur Coat,940 Williamson St.$*$ Madison$*$ WI 53703,Madison,53703,43.0804585,-89.3685384,177,4.1,17503788,0
b452,Manna Cafe & Bakery,611 N Sherman Ave$*$ Madison$*$ WI 53704,Madison,53704,43.1086,-89.3637,217,4.1,17502368,0
b453,Natt Spil,211 King St$*$ Madison$*$ WI 53703,Madison,53703,43.0745,-89.3799,267,4.1,17503325,0
b454,Wasabi Japanese Restaurant,449 State St Ste 2G$*$ Madison$*$ WI 53703,Madison,53703,43.0747,-89.3925,241,4.1,17502747,0
b455,Oliva,751 N High Point Rd$*$ Madison$*$ WI 53717,Madison,53717,43.076358,-89.518428,302,4.1,17503383,0
b456,Lao Laan-Xang Restaurant,1146 Williamson St$*$ Madison$*$ WI 53703,Madison,53703,43.0827,-89.3654,198,4.1,17502331,0
b457,The Sow's Ear,125 S Main St$*$ Verona$*$ WI 53593,Madison,53593,42.9901,-89.5335,154,4.1,17503249,0
b458,McFarland House Cafe,5923 Exchange St.$*$ McFarland$*$ WI 53558,Madison,53558,43.012302,-89.289852,111,4.1,17503487,0
b459,Angelo's,5801 Monona Dr$*$ Madison$*$ WI 53716,Madison,53716,43.0567319,-89.326138,146,4,17502928,0
b460,Quivey's Grove,6261 Nesbitt Rd$*$ Fitchburg$*$ WI 53719,Madison,53719,43.0088,-89.481,266,4,17501797,0
b461,Great Dane Pub & Brewing,2980 Cahill Main$*$ Fitchburg$*$ WI 53711,Madison,53711,43.0187,-89.4223,244,4,17501779,0
b462,La Brioche,2862 University Ave$*$ Madison$*$ WI 53705,Madison,53705,43.075449,-89.438373,257,4,17503381,0
b463,Daisy Cafe and Cupcakery,2827 Atwood Dr.$*$ Madison$*$ WI 53704,Madison,53704,43.093736,-89.343105,269,4,17503408,0
b464,Otto's Restaurant & Bar,6405 Mineral Pt Rd$*$ Madison$*$ WI 53705,Madison,53705,43.0607,-89.4896,177,4,17502463,0
b465,Ale Asylum,2002 Pankratz Street$*$ Madison$*$ WI 53704,Madison,53704,43.120314,-89.353954,172,4,17501931,0
b466,Sa Bai Thong,2840 University Ave$*$ Madison$*$ WI 53705,Madison,53705,43.0746,-89.4381,287,4,17502584,0
b467,La Mestiza,6644 Odana Road$*$ Madison$*$ WI 53719,Madison,53719,43.0561,-89.4952,200,4,17502327,0
b468,Parthenon Gyros Restaurant,316 State St$*$ Madison$*$ WI 53703,Madison,53703,43.0749,-89.3904,174,4,17502488,0
b469,Eldorado Grill,744 Williamson St$*$ Madison$*$ WI 53703,Madison,53703,43.0778,-89.3723,211,4,17502172,0
b470,Villa Dolce,1828 Parmenter St$*$ Middleton$*$ WI 53562,Madison,53562,43.0956,-89.5117,207,4,17502892,0
b471,Bunky's Cafe,2425 Atwood Ave$*$ Madison$*$ WI 53704,Madison,53704,43.093674,-89.346609,207,4,17502026,0
b472,Dumpling Haus,702 N Midvale Blvd$*$ Madison$*$ WI 53705,Madison,53705,43.074023,-89.451438,163,4,17503684,0
b473,Takumi Japanese Restaurant,4222 E Towne Blvd$*$ Madison$*$ WI 53704,Madison,53704,43.1246,-89.3102,194,4,17502689,0
b474,Jacs,2611 Monroe St$*$ Madison$*$ WI 53711,Madison,53711,43.057585,-89.42806,221,4,17503443,0
b475,Blue Moon Bar & Grill,2535 University Ave$*$ Madison$*$ WI 53705,Madison,53705,43.0722,-89.4296,175,4,17501999,0
b476,Aranda's,142 Market Street$*$ Deforest$*$ WI 53532,Madison,53532,43.2465956,-89.3416791,128,4,17503732,0
b477,Forequarter,708 1/4 E Johnson St$*$ Madison$*$ WI 53703,Madison,53703,43.0822485,-89.3796342,157,4,17503797,0
b478,Louisianne's Etc,7464 Hubbard Ave$*$ Middleton$*$ WI 53562,Madison,53562,43.0954,-89.5103,156,4,17502851,0
b479,Mediterranean Cafe,625 State St$*$ Madison$*$ WI 53703,Madison,53703,43.0747,-89.3959,127,4,17502390,0
b480,Bloom Bake Shop,1834 Parmenter Street$*$ Middleton$*$ WI 53562,Madison,53562,43.095575,-89.511657,178,4,17503486,0
b481,Paddy Coughlin's Pub,14 E. Sherman Ave.$*$ Fort Atkinson$*$ WI 53538,Madison,53538,42.92979,-88.836782,121,4,17503432,0
b482,Oakcrest Tavern,5371 Old Middleton Rd$*$ Madison$*$ WI 53705,Madison,53705,43.0741,-89.4724,132,4,17502671,0
b483,David's Jamaican Cuisine,5734 Monona Dr$*$ Monona$*$ WI 53716,Madison,53716,43.0578,-89.3256,127,4,17502937,0
b484,Anna's Pizzeria,1609 W Main St$*$ Sun Prairie$*$ WI 53590,Madison,53590,43.178,-89.2403,166,4,17503153,0
b485,Koffee Kup,355 E Main St$*$ Stoughton$*$ WI 53589,Madison,53589,42.9166,-89.2173,96,4,17503122,0
b486,Maria's Pizza,134 S Main St$*$ Oregon$*$ WI 53575,Madison,53575,42.9254,-89.3844,115,4,17503030,0
b487,Sizzling Hut,404 N Main St$*$ De Forest$*$ WI 53532,Madison,53532,43.2512,-89.3441,98,4,17501686,0
b488,Himal Chuli,318 State St$*$ Madison$*$ WI 53703,Madison,53703,43.0749,-89.3904,217,3.9,17502257,0
b489,Vintage Brewing Co.,674 S Whitney Way$*$ Madison$*$ WI 53711,Madison,53711,43.05096,-89.47391,228,3.9,17503491,0
b490,Takara Japanese Restaurant,696 S Whitney Way$*$ Madison$*$ WI 53711,Madison,53711,43.0502,-89.4736,221,3.9,17502687,0
b491,The Roman Candle,1920 Parmenter St$*$ Middleton$*$ WI 53562,Madison,53562,43.0962,-89.5117,215,3.9,17502874,0
b492,Grumpy Troll Pub & Brewery,105 S 2nd St$*$ Mt Horeb$*$ WI 53572,Madison,53572,43.008057,-89.738343,162,3.9,17502988,0
b493,Biaggi's Ristorante Italiano,1611 Aspen Commons$*$ Middleton$*$ WI 53717,Madison,53717,43.0731,-89.5258,185,3.9,17501985,0
b494,Bellini,401 E Washington Ave$*$ Madison$*$ WI 53703,Madison,53703,43.0773,-89.38,202,3.9,17501978,0
b495,Cuco's Mexican Restaurant,1050 North Edge Trail$*$ Verona$*$ WI 53593,Madison,53593,43.002784,-89.532407,167,3.9,17503681,0
b496,Sunroom Cafe,638 State St$*$ Madison$*$ WI 53703,Madison,53703,43.07499,-89.395985,176,3.9,17503348,0
b497,Osteria Papavero,128 E Wilson St$*$ Madison$*$ WI 53703,Madison,53703,43.0736,-89.38,171,3.9,17502485,0
b498,Vientiane Palace,151 W Gorham St$*$ Madison$*$ WI 53703,Madison,53703,43.0759,-89.3898,178,3.9,17502738,0
b499,Ginza of Tokyo West,6734 Odana Rd$*$ Madison$*$ WI 53719,Madison,53719,43.0567,-89.4973,178,3.9,17502221,0
b500,Sa-Bai Thong,6802 Odana Rd$*$ Madison$*$ WI 53719,Madison,53719,43.057095,-89.500404,151,3.9,17504097,0
b501,The Parlor Pizzeria,1916 East Camelback Road$*$ AZ 85016,Phoenix,85016,33.509371,-112.040769,734,4.9,17030960,0
b502,Via De Los Santos Mexican Cafe,9120 North Central Avenue$*$ Sunnyslope/North Mountain$*$ Phoenix$*$ AZ 85020,Phoenix,85020,33.568964,-112.074064,596,4.5,17029872,0
b503,Cibo,603 North 5th Avenue$*$ Downtown$*$ Phoenix$*$ AZ 85003,Phoenix,85003,33.454891,-112.080035,1062,4.7,17025909,0
b504,Postino Arcadia,3939 East Campbell Avenue$*$ Biltmore/Arcadia$*$ Phoenix$*$ AZ 85018,Phoenix,85018,33.502363,-111.996517,1142,4.8,17028658,0
b505,Matt's Big Breakfast,116 East Garfield Street$*$ Downtown$*$ Phoenix$*$ AZ 85004,Phoenix,85004,33.4576585,-112.0723168,1381,4.6,17027827,0
b506,Postino Central,5144 North Central Avenue$*$ Midtown$*$ Phoenix$*$ AZ 85012,Phoenix,85012,33.512251,-112.073898,582,4.7,17030771,0
b507,Los Reyes de la Torta,9230 North 7th Street$*$ Sunnyslope/North Mountain$*$ Phoenix$*$ AZ 85020,Phoenix,85020,33.570743,-112.065364,469,4.6,17027656,0
b508,Chino Bandido,15414 North 19th Avenue$*$ Deer Valley$*$ Phoenix$*$ AZ 85023,Phoenix,85023,33.625845,-112.099864,952,4.5,17025865,0
b509,True Food Kitchen,2502 East Camelback Road$*$ Biltmore/Arcadia$*$ Phoenix$*$ AZ 85016,Phoenix,85016,33.509703,-112.027346,1072,4.5,17030372,0
b510,La Grande Orange Grocery,4410 North 40th Street$*$ Biltmore/Arcadia$*$ Phoenix$*$ AZ 85018,Phoenix,85018,33.501531,-111.995564,736,4.5,17027423,0
b511,La Grande Orange Pizzeria,4410 N 40th St$*$ Phoenix$*$ AZ 85018,Phoenix,85018,33.501531,-111.995564,760,4.5,17027424,0
b512,Pappadeaux Seafood Kitchen,11501 N Black Canyon Freeway$*$ Sunnyslope/North Mountain$*$ Phoenix$*$ AZ 85029,Phoenix,85029,33.589345,-112.116384,533,4.4,17028356,0
b513,Chelsea's Kitchen,5040 North 40th Street$*$ Biltmore/Arcadia$*$ Phoenix$*$ AZ 85018,Phoenix,85018,33.51134,-111.995464,952,4.4,17025770,0
b514,Hillstone,2650 East Camelback Road$*$ Biltmore/Arcadia$*$ Phoenix$*$ AZ 85016,Phoenix,85016,33.510034,-112.0241743,889,4.4,17032240,0
b515,Delux Burger,3146 East Camelback Road$*$ Biltmore/Arcadia$*$ Phoenix$*$ AZ 85016,Phoenix,85016,33.510208,-112.014611,953,4.4,17026152,0
b516,Carolina's Mexican Food,1202 East Mohave Street$*$ Downtown$*$ Phoenix$*$ AZ 85034,Phoenix,85034,33.431537,-112.056197,480,4.4,17025688,0
b517,Sushi Ken,4206 E Chandler Blvd$*$ Phoenix$*$ AZ 85048,Phoenix,85048,33.305437,-111.99253,484,4.4,17029477,0
b518,Rito's Mexican Food,907 North 14th Street$*$ Downtown$*$ Phoenix$*$ AZ 85006,Phoenix,85006,33.4579376,-112.0520803,329,4.4,17028878,0
b519,Pizzeria Bianco,623 East Adams Street$*$ Downtown$*$ Phoenix$*$ AZ 85004,Phoenix,85004,33.449241,-112.065639,1236,4.3,17028613,0
b520,Lux Central,4400 North Central Avenue$*$ Midtown$*$ Phoenix$*$ AZ 85013,Phoenix,85013,33.5001935,-112.0738985,324,4.3,17027700,0
b521,Mike & Ronda's The Place,5171 West Bell Road$*$ Deer Valley$*$ Phoenix$*$ AZ 85308,Phoenix,85308,33.638777,-112.170874,357,4.3,17027928,0
b522,Los Taquitos,4747 E Elliot Rd$*$ Phoenix$*$ AZ 85044,Phoenix,85044,33.348763,-111.981083,424,4.3,17027660,0
b523,Pho Thanh,1702 West Camelback Road$*$ Midtown$*$ Phoenix$*$ AZ 85015,Phoenix,85015,33.509737,-112.095796,267,4.3,17028517,0
b524,Nello's Pizza,4710 E Warner Road$*$ Phoenix$*$ AZ 85044,Phoenix,85044,33.330861,-111.982886,404,4.3,17028076,0
b525,Pomegranate Cafe,4025 East Chandler Boulevard$*$ Ahwatukee$*$ Phoenix$*$ AZ 85048,Phoenix,85048,33.304959,-111.996392,413,4.3,17031909,0
b526,Spinato's Pizza,4848 E Chandler Blvd$*$ Phoenix$*$ AZ 85048,Phoenix,85048,33.305446,-111.978647,336,4.3,17032339,0
b527,Yen Sushi & Sake Bar,17037 North 43rd Avenue #A3$*$ Deer Valley$*$ Phoenix$*$ AZ 85308,Phoenix,85308,33.639965,-112.15165,238,4.3,17030919,0
b528,Florencia Pizza Bistro,3646 E Ray Rd$*$ Phoenix$*$ AZ 85044,Phoenix,85044,33.315639,-112.005774,324,4.3,17026598,0
b529,Knock Kneed Lobster,3202 East Washington Street$*$ East Phoenix$*$ Phoenix$*$ AZ 85034,Phoenix,85034,33.448381,-112.012631,222,4.3,17027343,0
b530,Mr. Chao's Asia Bistro,4232 E Chandler Blvd$*$ Phoenix$*$ AZ 85048,Phoenix,85048,33.305437,-111.992074,329,4.3,17028003,0
b531,Lo-Lo's Chicken & Waffles,1220 South Central Avenue$*$ Downtown$*$ Phoenix$*$ AZ 85004,Phoenix,85004,33.435237,-112.074053,573,4.2,17027584,0
b532,Fez,105 West Portland Street$*$ Midtown$*$ Phoenix$*$ AZ 85003,Phoenix,85003,33.4596909,-112.0743181,593,4.2,17026527,0
b533,Bobby-Q,8501 North 27th Avenue$*$ Phoenix$*$ AZ 85051,Phoenix,85051,33.560598,-112.11678,370,4.2,17025437,0
b534,Windsor,5223 North Central Avenue$*$ Phoenix$*$ AZ 85012,Phoenix,85012,33.513688,-112.0734431,345,4.2,17032686,0
b535,The Fry Bread House,1003 East Indian School Road$*$ Midtown$*$ Phoenix$*$ AZ 85014,Phoenix,85014,33.494402,-112.060828,337,4.2,17026650,0
b536,China Chili,302 East Flower Street$*$ Midtown$*$ Phoenix$*$ AZ 85012,Phoenix,85012,33.485801,-112.069146,348,4.2,17025821,0
b537,Rokerij,6335 North 16th Street$*$ Phoenix$*$ AZ 85016,Phoenix,85016,33.530017,-112.047334,385,4.2,17028912,0
b538,Scramble,9832 N. 7th Street$*$ Phoenix$*$ AZ 85020,Phoenix,85020,33.575677,-112.065327,368,4.2,17030733,0
b539,Sakana Sushi & Grill,5061 East Elliot Road$*$ Ahwatukee$*$ Phoenix$*$ AZ 85044,Phoenix,85044,33.348763,-111.97668,327,4.2,17029025,0
b540,Times Square Italian Restaurant & Pizzeria,2602 W Deer Valley Rd$*$ Phoenix$*$ AZ 85027,Phoenix,85027,33.683937,-112.116284,320,4.2,17029713,0
b541,The Main Ingredient Ale House & Cafe,2337 North 7th Street$*$ Midtown$*$ Phoenix$*$ AZ 85006,Phoenix,85006,33.473709,-112.064954,231,4.2,17031649,0
b542,Great Wok,3646 E Ray Road$*$ Phoenix$*$ AZ 85044,Phoenix,85044,33.316161,-112.003574,292,4.2,17030937,0
b543,Poncho's Mexican Food,7202 S Central Ave$*$ Phoenix$*$ AZ 85042,Phoenix,85042,33.381031,-112.073463,212,4.2,17028628,0
b544,Panda Garden,4730 E Warner Rd$*$ Phoenix$*$ AZ 85044,Phoenix,85044,33.330903,-111.983102,262,4.2,17028328,0
b545,Wang's Express,4747 East Bell Road$*$ Northeast Phoenix$*$ Phoenix$*$ AZ 85032,Phoenix,85032,33.640363,-111.978884,227,4.2,17029944,0
b546,Jo Jo's Pizza & Family Restaurant,23425 North 39th Drive$*$ Deer Valley$*$ Phoenix$*$ AZ 85310,Phoenix,85310,33.698594,-112.143434,240,4.2,17027218,0
b547,Pei Wok,3233 E Chandler Blvd STE #6A$*$ Phoenix$*$ AZ 85048,Phoenix,85048,33.304963,-112.013609,265,4.2,17028431,0
b548,Angie & Jimmie's Italian Pizza,3126 West Indian School Road$*$ Midtown$*$ Phoenix$*$ AZ 85017,Phoenix,85017,33.495114,-112.127032,192,4.2,17025063,0
b549,Barrio Cafe,2814 North 16th Street$*$ Midtown$*$ Phoenix$*$ AZ 85006,Phoenix,85006,33.478778,-112.047817,781,4.1,17025256,0
b550,Hillside Spot,4740 E. Warner Rd$*$ Phoenix$*$ AZ 85044,Phoenix,85044,33.330827,-111.98183,512,4.1,17031611,0
b551,La Santisima Gourmet Taco Shop,1919 North 16th Street$*$ Midtown$*$ Phoenix$*$ AZ 85006,Phoenix,85006,33.469201,-112.047393,250,4.1,17031685,0
b552,The Vig,4041 N 40th St$*$ Phoenix$*$ AZ 85018,Phoenix,85018,33.493931,-111.995324,349,4.1,17029878,0
b553,Cherryblossom Noodle Cafe,914 East Camelback Road$*$ Phoenix$*$ AZ 85014,Phoenix,85014,33.509437,-112.061628,316,4.1,17025780,0
b554,Oregano's Pizza Bistro,1008 E Camelback Rd$*$ Phoenix$*$ AZ 85014,Phoenix,85014,33.509437,-112.060141,348,4.1,17028233,0
b555,Sierra Bonita Grill,6933 North 7th Street$*$ Midtown$*$ Phoenix$*$ AZ 85014,Phoenix,85014,33.537881,-112.064903,342,4.1,17029205,0
b556,Carolina's Mexican Food,2126 East Cactus$*$ Phoenix$*$ AZ 85022,Phoenix,85022,33.545363,-112.047665,231,4.1,17025689,0
b557,Pane Bianco,4404 North Central Avenue$*$ Midtown$*$ Phoenix$*$ AZ 85012,Phoenix,85012,33.5006213,-112.0743113,264,4.1,17028331,0
b558,OHSO Eatery + Nanobrewery,4900 East Indian School Road$*$ Phoenix$*$ AZ 85018,Phoenix,85018,33.495018,-111.975898,200,4.1,17033008,0
b559,America's Taco Shop,2041 North 7th Street$*$ Phoenix$*$ AZ 85006,Phoenix,85006,33.470124,-112.064945,270,4.1,17030463,0
b560,Luci's Healthy Marketplace & Coffee Bar,1590 East Bethany Home Road$*$ Midtown$*$ Phoenix$*$ AZ 85014,Phoenix,85014,33.523891,-112.047873,246,4.1,17030810,0
b561,Tuck Shop,2245 North 12th Street$*$ Midtown$*$ Phoenix$*$ AZ 85006,Phoenix,85006,33.472027,-112.056223,299,4.1,17030385,0
b562,Yard House,21001 N Tatum Blvd$*$ Phoenix$*$ AZ 85050,Phoenix,85050,33.676937,-111.977134,241,4.1,17030053,0
b563,Va Bene Italian Cuisine,4647 E Chandler Blvd$*$ Phoenix$*$ AZ 85048,Phoenix,85048,33.305063,-111.983656,273,4.1,17029850,0
b564,Phoenix City Grille,5816 North 16th Street$*$ Midtown$*$ Phoenix$*$ AZ 85016,Phoenix,85016,33.52253,-112.047664,224,4.1,17028525,0
b565,Culver's,1825 W Deer Valley Rd$*$ Phoenix$*$ AZ 85027,Phoenix,85027,33.68355,-112.098403,320,4.1,17030258,0
b566,Biscuits,4623 E Elliot Rd$*$ Phoenix$*$ AZ 85044,Phoenix,85044,33.3485028,-111.9837827,251,4.1,17032017,0
b567,Sala Thai,10880 N 32nd St$*$ Phoenix$*$ AZ 85028,Phoenix,85028,33.585753,-112.013264,271,4.1,17029031,0
b568,In-N-Out Burger,21001 N Tatum Blvd$*$ Phoenix$*$ AZ 85050,Phoenix,85050,33.676937,-111.977134,325,4.1,17027078,0
b569,Il Posto,9832 N 7th St$*$ Phoenix$*$ AZ 85020,Phoenix,85020,33.575631,-112.065364,263,4.1,17027071,0
b570,Desert Jade,3215 E Indian School Rd$*$ Phoenix$*$ AZ 85018,Phoenix,85018,33.495063,-112.012475,239,4.1,17026165,0
b571,Sauce Pizza & Wine,2470 W Happy Valley Rd$*$ Phoenix$*$ AZ 85085,Phoenix,85085,33.713052,-112.111734,215,4,17030169,0
b572,Pino's Pizza Al Centro,139 West Thomas Road$*$ Midtown$*$ Phoenix$*$ AZ 85013,Phoenix,85013,33.480163,-112.076365,154,4.1,17028561,0
b573,Bell' Italia Pizzeria,4909 E Chandler Blvd$*$ Phoenix$*$ AZ 85048,Phoenix,85048,33.305063,-111.978013,200,4.1,17025304,0
b574,Raffaele Pizza,7019 N 19th Ave$*$ Phoenix$*$ AZ 85021,Phoenix,85021,33.539049,-112.099434,164,4.1,17028719,0
b575,Durant's,2611 North Central Avenue$*$ Midtown$*$ Phoenix$*$ AZ 85004,Phoenix,85004,33.476819,-112.073634,591,4,17026289,0
b576,St. Francis,111 East Camelback Road$*$ Midtown$*$ Phoenix$*$ AZ 85012,Phoenix,85012,33.509161,-112.071623,562,4,17031254,0
b577,White Chocolate Grill,7000 East Mayo Boulevard$*$ Northeast Phoenix$*$ AZ 85054,Phoenix,85054,33.655437,-111.929531,477,4,17029981,0
b578,Hula's Modern Tiki,4700 North Central Avenue$*$ Midtown$*$ Phoenix$*$ AZ 85012,Phoenix,85012,33.505798,-112.073957,342,4,17031363,0
b579,Zinburger Wine and Burger Bar,2502 East Camelback Road$*$ Biltmore/Arcadia$*$ Phoenix$*$ AZ 85016,Phoenix,85016,33.509669,-112.027331,321,4,17031785,0
b580,Switch Restaurant & Wine Bar,2603 North Central Avenue$*$ Phoenix$*$ AZ 85004,Phoenix,85004,33.476802,-112.073629,271,4,17030196,0
b581,Hanny's,40 North 1st Street$*$ Downtown$*$ Phoenix$*$ AZ 85004,Phoenix,85004,33.448756,-112.072702,308,4,17030391,0
b582,Los Dos Molinos,8646 South Central Avenue$*$ Phoenix$*$ AZ 85042,Phoenix,85042,33.367364,-112.073363,353,4,17027644,0
b583,Wild Thaiger,2631 North Central Avenue$*$ Midtown$*$ Phoenix$*$ AZ 85004,Phoenix,85004,33.476966,-112.073634,325,4,17029996,0
b584,Tryst Cafe,21050 North Tatum Boulevard$*$ AZ 85050,Phoenix,85050,33.678139,-111.977666,223,4,17032211,0
b585,Lon's - The Hermosa Inn,The Hermosa Inn$*$ 5532 North Palo Cristi Road$*$ Biltmore/Arcadia$*$ Phoenix$*$ AZ 85253,Phoenix,85253,33.518368,-112.004635,225,4,17027592,0
b586,Rosita's Place,2310 East McDowell Road$*$ East Phoenix$*$ Phoenix$*$ AZ 85006,Phoenix,85006,33.465937,-112.032071,219,4,17028962,0
b587,Phoenix Public Market Cafe,14 East Pierce Street$*$ Downtown$*$ Phoenix$*$ AZ 85004,Phoenix,85004,33.4555828,-112.0736239,113,4,17033807,0
b588,TexAz Grill,6003 North 16th Street$*$ Phoenix$*$ AZ 85016,Phoenix,85016,33.524011,-112.046982,228,4,17029676,0
b589,Hana Japanese Eatery,5524 North 7th Avenue$*$ Midtown$*$ Phoenix$*$ AZ 85013,Phoenix,85013,33.516867,-112.082594,258,4,17026904,0
b590,Nobuo at Teeter House,622 East Adams Street$*$ Downtown$*$ Phoenix$*$ AZ 85004,Phoenix,85004,33.449564,-112.065674,179,4,17031944,0
b591,Dick's Hideaway,6008 North 16th Street$*$ Midtown$*$ Phoenix$*$ AZ 85016,Phoenix,85016,33.524247,-112.047652,218,4,17026182,0
b592,Spinato's Pizza,5509 North 7th Street$*$ Midtown$*$ Phoenix$*$ AZ 85014,Phoenix,85014,33.517438,-112.063844,234,4,17029287,0
b593,Vincent on Camelback,3930 East Camelback Road$*$ Biltmore/Arcadia$*$ Phoenix$*$ AZ 85018,Phoenix,85018,33.510081,-111.996757,219,4,17029906,0
b594,Two Hippies Beach House,501 East Camelback Road$*$ Midtown$*$ Phoenix$*$ AZ 85012,Phoenix,85012,33.509176,-112.067043,273,4,17030527,0
b595,Super Dragon,1212 East Northern Avenue$*$ Sunnyslope/North Mountain$*$ Phoenix$*$ AZ 85020,Phoenix,85020,33.553237,-112.055993,167,4,17029461,0
b596,Chicago Hamburger Co.,3749 E Indian School Rd$*$ Phoenix$*$ AZ 85018,Phoenix,85018,33.494993,-112.00099,204,4,17025788,0
b597,Carly's Bistro,128 East Roosevelt Street$*$ Downtown$*$ Phoenix$*$ AZ 85004,Phoenix,85004,33.458837,-112.07206,210,4,17025683,0
b598,Saba's Mediterranean Cuisine,4747 East Bell Road$*$ Northeast Phoenix$*$ Phoenix$*$ AZ 85032,Phoenix,85032,33.640363,-111.978884,210,4,17029003,0
b599,Original Burrito Company,4865 E Elliot Rd$*$ Phoenix$*$ AZ 85044,Phoenix,85044,33.348763,-111.978924,269,4,17028244,0
b600,40th Street Cafe,4022 E Greenway Rd$*$ Phoenix$*$ AZ 85032,Phoenix,85032,33.626603,-111.995192,188,4,17024955,0
b601,Kazu,1862 Rue Ste-Catherine O$*$ Montreal$*$ QC H3H 1M2,Montreal,H3H 1M2,45.493146,-73.57979,3353,4.9,16637912,0
b602,Olive Et Gourmando,351 Rue St-Paul O$*$ Montreal$*$ QC H2Y 2A7,Montreal,H2Y 2A7,45.501205,-73.556496,1504,4.9,16635422,0
b603,Fairmount Bagel,74 Ave Fairmount Ouest$*$ Montral$*$ QC H2T2M1,Montreal,H2T2M1,45.522958,-73.595351,1033,4.9,16634578,0
b604,Rotisserie Romados,115 Rue Rachel East$*$ Montreal$*$ QC H2W 1C8,Montreal,H2W 1C8,45.519177,-73.580817,1280,4.8,16637182,0
b605,Tuck Shop,4662 Rue Notre-Dame O$*$ Montreal$*$ QC H4C1S7,Montreal,H4C1S7,45.472985,-73.588302,744,4.8,16638173,0
b606,St-Viateur Bagel & Caf,1127 Ave Du Mont-Royal E$*$ Montreal$*$ QC H2J1X9,Montreal,H2J1X9,45.528323,-73.579127,1032,4.7,16636423,0
b607,Bouillon Bilk,1595 Boulevard Saint-Laurent$*$ Montral$*$ QC H2X 2S9,Montreal,H2X 2S9,45.511024,-73.565905,333,4.7,16638734,0
b608,Kem CoBa,60 Avenue Fairmount O$*$ Montral$*$ QC H2T 2M1,Montreal,H2T 2M1,45.523044,-73.595022,325,4.7,16638870,0
b609,Carambola Bistro+ Restaurant,72 Rue Cameron$*$ Hudson$*$ QC J0P1H0,Montreal,J0P1H0,45.4569158,-74.1409668,402,4.7,16637505,0
b610,Qing Hua Dumpling,1676 Ave Lincoln$*$ Montreal$*$ QC H3H 2E7,Montreal,H3H 2E7,45.495274,-73.580917,1183,4.6,16637284,0
b611,Aux Vivres,4631 Boulevard St-Laurent$*$ Montreal$*$ QC H2T1R4,Montreal,H2T1R4,45.5211486,-73.5884149,1144,4.6,16633572,0
b612,Pho Lien,5703 Chemin De La Cte-Des-Neiges$*$ Montral$*$ QC H3S,Montreal,H3S,45.4989,-73.627572,736,4.6,16635539,0
b613,Brit & Chips,433 McGill$*$ Montreal$*$ QC H2Y 2G5,Montreal,H2Y 2G5,45.5006252,-73.5581663,955,4.6,16638272,0
b614,Arepera du plateau,4050 Rue De Bullion$*$ Montreal$*$ QC H2W1H1,Montreal,H2W1H1,45.5184047,-73.5784907,595,4.6,16638778,0
b615,Burger de Ville,59 Westminster Ave N$*$ Montreal$*$ QC H4X1Y8,Montreal,H4X1Y8,45.4532844,-73.6459719,938,4.6,16637665,0
b616,Bocadillo,3677 Boulevard Saint-Laurent$*$ Montreal$*$ QC H2X2V5,Montreal,H2X2V5,45.514629,-73.573771,565,4.6,16637255,0
b617,Cacao 70,2087 Ste. Catherine West$*$ Montreal$*$ QC H3H1M6,Montreal,H3H1M6,45.4913823,-73.5821621,1257,4.5,16639073,0
b618,L'Avenue,922 Ave Du Mont-Royal E$*$ Montreal$*$ QC H2J1X1,Montreal,H2J1X1,45.526657,-73.580221,1069,4.5,16637209,0
b619,Schwartz's Montreal Hebrew Delicatessen,3895 Boulevard Saint-Laurent$*$ Montreal$*$ QC H2W1L2,Montreal,H2W1L2,45.516326,-73.577599,3786,4.5,16634246,0
b620,L'Express,3927 Saint Denis St$*$ Montreal$*$ QC H2W2M1,Montreal,H2W2M1,45.5201388,-73.5744838,1266,4.5,16634570,0
b621,Lemac,1045 Ave Laurier W$*$ Montral$*$ QC H2V2L1,Montreal,H2V2L1,45.518275,-73.597218,1274,4.5,16635074,0
b622,Il Focolaio Pizza Resto,1223 Carre Phillips$*$ Montreal$*$ QC H3B3H3,Montreal,H3B3H3,45.503922,-73.568071,653,4.5,16634785,0
b623,Tavern on the Square,1 Westmount Sq Ste C310$*$ Westmount$*$ QC H3Z2P9,Montreal,H3Z2P9,45.4875758,-73.5873509,910,4.5,16636517,0
b624,Lola Rosa Cafe,545 Rue Milton$*$ Montreal$*$ QC H2X1W5,Montreal,H2X1W5,45.5073289,-73.575737,627,4.5,16635109,0
b625,Omnivore Comptoir-Grill,4351 Boulevard Saint Laurent$*$ Montreal$*$ QC H2W1Z8,Montreal,H2W1Z8,45.519292,-73.584169,337,4.5,16638171,0
b626,Bombay Choupati,5011 Boulevard Des Sources$*$ Montral$*$ QC H8Y,Montreal,H8Y,45.509074,-73.821964,388,4.5,16633734,0
b627,Farhat,5595 Cotes-des-Neiges$*$ Montreal$*$ QC H3T,Montreal,H3T,45.498052,-73.625741,403,4.5,16637416,0
b628,Galo,1970 Graham$*$ Mont-Royal$*$ QC H3R,Montreal,H3R,45.513753,-73.647434,374,4.5,16637208,0
b629,Bistro Merlot,3541 Blvd Saint-Charles$*$ Kirkland$*$ QC H9H 3C4,Montreal,H9H 3C4,45.4551855,-73.8612829,214,4.5,16638458,0
b630,Garde Manger,408 Rue St-Francois-Xavier$*$ Montreal$*$ QC H2Y2T1,Montreal,H2Y2T1,45.502794,-73.555637,1513,4.4,16635021,0
b631,Marven's,880 Ave Ball$*$ Montreal$*$ QC H3N2R8,Montreal,H3N2R8,45.5282438,-73.6338179,816,4.4,16635203,0
b632,La Banquise,994 Rue Rachel Est$*$ Montreal$*$ QC H2J2J3,Montreal,H2J2J3,45.5253714,-73.5747853,2090,4.4,16634155,0
b633,Au Pied de Cochon,536 Avenue Duluth Est$*$ Montreal$*$ QC H2L1A9,Montreal,H2L1A9,45.52217,-73.574474,2145,4.4,16633557,0
b634,Tapeo,511 Villeray Rue$*$ Montreal$*$ QC,Montreal,,45.541567,-73.6226874,731,4.4,16636508,0
b635,Dinette Triple Crown,6704 Rue Clark$*$ Montreal$*$ QC H2S3G2,Montreal,H2S3G2,45.5314384,-73.6130424,378,4.4,16639575,0
b636,Stash Cafe,200 Rue St-Paul W$*$ Montral$*$ QC H2Y2A2,Montreal,H2Y2A2,45.502701,-73.555243,455,4.4,16636425,0
b637,Phayathai,1235 Rue Guy$*$ Montreal$*$ QC H3H2L3,Montreal,H3H2L3,45.494565,-73.576298,361,4.4,16635528,0
b638,Le Filet,219 Ave Du Mont Royal W$*$ Montreal$*$ QC H2T2Y6,Montreal,H2T2Y6,45.5179563,-73.5883543,474,4.4,16638528,0
b639,Decarie Hot Dog,953 Boulevard Decarie$*$ Saint-Laurent$*$ QC H4L3M3,Montreal,H4L3M3,45.513742,-73.681574,655,4.4,16637071,0
b640,Restaurant Bangkok Express,5645 Ave De Monkland$*$ Montreal$*$ QC H4A1E2,Montreal,H4A1E2,45.4753002,-73.623215,567,4.4,16637567,0
b641,Le Petit Alep,191 Jean Talon St E$*$ Montreal$*$ QC H2R1S8,Montreal,H2R1S8,45.5364319,-73.6164246,413,4.4,16635049,0
b642,Abu Elias,733 Boulevard De La Cote-Vertu$*$ Saint-Laurent$*$ QC H4L,Montreal,H4L,45.520813,-73.674314,428,4.4,16633462,0
b643,Gigi Pizza,302 Lakeshore Rd$*$ Pointe-Claire$*$ QC H9S4L7,Montreal,H9S4L7,45.428796,-73.826418,328,4.4,16637798,0
b644,Van Horne Pizzeria,1505 Avenue Van Horne$*$ Outremont$*$ QC H2V 1L4,Montreal,H2V 1L4,45.518976,-73.61651,354,4.4,16636602,0
b645,Nextdoor Pub & Grill,5175 Rue Sherbrooke O$*$ Montreal$*$ QC H4A1T5,Montreal,H4A1T5,45.475674,-73.607499,306,4.4,16637258,0
b646,Kuljit india,1911 Keller Boulevard$*$ QC H4K1L4,Montreal,H4K1L4,45.524712,-73.713042,233,4.4,16638048,0
b647,Salle de th Gryphon D'Or,5968 Avenue De Monkland$*$ Montral$*$ QC H4A2L2,Montreal,H4A2L2,45.471626,-73.626418,255,4.4,16636354,0
b648,Pizza Villa,6672 Ave Papineau$*$ Montreal$*$ QC H2G2X3,Montreal,H2G2X3,45.5444403,-73.59966,199,4.4,16635646,0
b649,Opiano,1115 Sherbrooke Street W$*$ Montreal$*$ QC H3A 1H3,Montreal,H3A 1H3,45.5018212,-73.5769085,183,4.4,16639317,0
b650,GaNaDaRa,1862 Boul De Maisonneuve$*$ Montreal$*$ QC H3H 1J9,Montreal,H3H 1J9,45.4936971,-73.5813897,539,4.3,16639663,0
b651,Satay Brothers,3721 Rue Notre Dame Ouest$*$ Montreal$*$ QC H4C1P8,Montreal,H4C1P8,45.4792705,-73.5817716,652,4.3,16638840,0
b652,Deville Dinerbar,1425 Rue Stanley$*$ Montreal$*$ QC H3A1P4,Montreal,H3A1P4,45.4996748,-73.5742857,900,4.3,16639072,0
b653,Holder,407 Rue McGill$*$ Montral$*$ QC H2Y2G3,Montreal,H2Y2G3,45.500394,-73.557318,1054,4.3,16634752,0
b654,Restaurant Da Emma,777 Rue De La Commune W$*$ Montral$*$ QC H3C1Y5,Montreal,H3C1Y5,45.495593,-73.552878,790,4.3,16635897,0
b655,Le Cartet,106 Rue McGill$*$ Montreal$*$ QC H2Y2E5,Montreal,H2Y2E5,45.49937,-73.555153,900,4.3,16636688,0
b656,Reuben's Deli & Steaks,1116 Sainte-Catherine St W$*$ Montreal$*$ QC H3B1H5,Montreal,H3B1H5,45.4997297,-73.5730886,591,4.3,16636281,0
b657,Juliette et Chocolat,1615 Rue Saint Denis$*$ Montreal$*$ QC H2X3K3,Montreal,H2X3K3,45.514929,-73.5627,882,4.3,16634839,0
b658,Chu Chai,4088 Rue Saint-Denis$*$ Montreal$*$ QC H2W2M5,Montreal,H2W2M5,45.5209616,-73.5766272,652,4.3,16634273,0
b659,Boustan,2020 Rue Crescent$*$ Montreal$*$ QC H3G2B8,Montreal,H3G2B8,45.4981127,-73.5776141,810,4.3,16633759,0
b660,Taverne Square Dominion,1243 Rue Metcalfe$*$ Montreal$*$ QC H3B2V5,Montreal,H3B2V5,45.500527,-73.571505,520,4.3,16634440,0
b661,Pintxo,330 Avenue du Mont-Royal E$*$ Montreal$*$ QC H2T 1P7,Montreal,H2T 1P7,45.517884,-73.5737325,660,4.3,16635563,0
b662,Le Club Chasse et Pche,423 Rue St-Claude$*$ Montral$*$ QC H2Y3B6,Montreal,H2Y3B6,45.508923,-73.552505,630,4.3,16635009,0
b663,Tri Express,1650 Ave Laurier E$*$ Montreal$*$ QC H2J1J2,Montreal,H2J1J2,45.535358,-73.581876,710,4.3,16636588,0
b664,Bombay Mahal,1001 Rue Jean-Talon Ouest$*$ Montreal$*$ QC H3N,Montreal,H3N,45.524728,-73.625576,686,4.3,16633735,0
b665,Patati Patata Friterie de Luxe,4177 Boulevard St-Laurent$*$ Montral$*$ QC H2W,Montreal,H2W,45.518309,-73.581913,446,4.3,16635495,0
b666,Khyber Pass Cuisine Afghan,506 Ave Duluth E$*$ Montreal$*$ QC H2L,Montreal,H2L,45.521816,-73.574746,542,4.3,16634876,0
b667,Marathon Souvlaki,3938 Notre-Dame$*$ Laval$*$ QC H7W1S7,Montreal,H7W1S7,45.540556,-73.7491,845,4.3,16637179,0
b668,Le Quartier Gnral,1251 Rue Gilford Corner brbeuf$*$ Montreal$*$ QC H2J1R1,Montreal,H2J1R1,45.5308919,-73.5815148,406,4.3,16637974,0
b669,Rgine Caf,1840 Rue Beaubien Est$*$ Montreal$*$ QC H2G2V6,Montreal,H2G2V6,45.5437094,-73.596093,201,4.3,16639898,0
b670,Gibeau Orange Julep,7700 Boulevard Decarie$*$ Montreal$*$ QC H4P2H4,Montreal,H4P2H4,45.495839,-73.656232,305,4.3,16634670,0
b671,Th Mon Caf,376 Notre-Dame St O$*$ Montreal$*$ QC H2Y1T9,Montreal,H2Y1T9,45.5019,-73.558834,377,4.3,16639127,0
b672,Restaurant Jano,3883 Boulevard St-Laurent$*$ Montral$*$ QC H2W,Montreal,H2W,45.516257,-73.577423,357,4.3,16635957,0
b673,Garage Beirut,1238 Rue Mackay$*$ Montreal$*$ QC H3G2H5,Montreal,H3G2H5,45.495325,-73.576336,260,4.3,16638683,0
b674,Chalet Bar-B-Q Rotisserie,5456 Rue Sherbrooke O$*$ Montreal$*$ QC H4A,Montreal,H4A,45.472778,-73.611215,334,4.3,16634176,0
b675,Soba et Sushi,5227 Shebrooke Ouest$*$ Montreal$*$ QC H4A,Montreal,H4A,45.475105,-73.608161,332,4.3,16637809,0
b676,Kazumi Sushi Lounge,6394 Rue Sherbrooke E$*$ Montreal$*$ QC H1N,Montreal,H1N,45.580767,-73.544029,447,4.3,16638320,0
b677,Sapori di Napoli,1465 Rue Dudemaine$*$ Montreal$*$ QC H3M1P9,Montreal,H3M1P9,45.5409201,-73.6869149,241,4.3,16639171,0
b678,Pizza Nikkos,4279-A St. Jean Boulevard$*$ Dollard-Des Ormeaux$*$ QC H9G,Montreal,H9G,45.47971,-73.841086,263,4.3,16637168,0
b679,Cafe Lili et Oli,2515 notre-dame west$*$ Montreal$*$ QC H3J,Montreal,H3J,45.4829755,-73.5751178,233,4.3,16637119,0
b680,Paulo & Suzanne Open 24h,5501 Boulevard Gouin Ouest$*$ Montreal$*$ QC H4J,Montreal,H4J,45.5338119,-73.7171021,257,4.3,16637268,0
b681,Village Grec,4491 Samson Blvd.$*$ Laval$*$ QC,Montreal,,45.529767,-73.755944,287,4.3,16637602,0
b682,Imadake,4006 St-Catherine West$*$ Montreal$*$ QC,Montreal,,45.488904,-73.584908,862,4.2,16638569,0
b683,Liverpool House,2501 Rue Notre-Dame W$*$ Montral$*$ QC H3J1N6,Montreal,H3J1N6,45.482978,-73.57545,428,4.2,16635104,0
b684,Burger Bar Crescent,1465 Rue Crescent$*$ Montreal$*$ QC H3G2B2,Montreal,H3G2B2,45.497985,-73.576978,535,4.2,16638735,0
b685,L'Orignal,479 Rue Saint Alexis$*$ Montreal$*$ QC H2Y 2N7,Montreal,H2Y 2N7,45.502629,-73.557967,493,4.2,16636716,0
b686,Keg Steakhouse + Bar - Vieux Montral,25 Rue Saint Paul Est$*$ Montral$*$ QC H2Y1G3,Montreal,H2Y1G3,45.5059795,-73.5535448,721,4.2,16635032,0
b687,Barroco,312 St. Paul Ouest$*$ Montreal$*$ QC H2Y2A3,Montreal,H2Y2A3,45.5012903,-73.5561668,494,4.2,16637230,0
b688,Toqu!,900 Pl Jean-Paul-Riopelle$*$ Montral$*$ QC H2Y3X7,Montreal,H2Y3X7,45.502899,-73.56075,398,4.2,16636568,0
b689,Milos,5357 Park Ave$*$ Montreal$*$ QC H2V4G9,Montreal,H2V4G9,45.521555,-73.6007093,550,4.2,16635269,0
b690,The Keg Steakhouse + Bar,5 Place Ville Marie$*$ Montreal$*$ QC H3B4P6,Montreal,H3B4P6,45.500342,-73.569145,471,4.2,16637476,0
b691,Cafe Myriade,1432 Rue Mackay$*$ Montral$*$ QC H3G2H7,Montreal,H3G2H7,45.496177,-73.577927,364,4.2,16637079,0
b692,Maison Christian Faure,355 Pl Royale$*$ Montreal$*$ QC H2Y1Z6,Montreal,H2Y1Z6,45.5034558,-73.5543558,134,4.2,16640539,0
b693,PM Restaurant,1809 Rue Sainte-Catherine Ouest$*$ Montreal$*$ QC H3H1M2,Montreal,H3H1M2,45.4937219,-73.5795849,347,4.2,16637325,0
b694,Thali Cuisine Indienne,1409 Rue Saint Marc$*$ Montreal$*$ QC H3H2G4,Montreal,H3H2G4,45.4930756,-73.5806964,446,4.2,16637293,0
b695,Amelia's,201 Rue Milton$*$ Montral$*$ QC H2X2L1,Montreal,H2X2L1,45.510761,-73.572564,445,4.2,16633498,0
b696,Pikolo Espresso Bar,3418 B Av Du Parc$*$ Montreal$*$ QC H2X2H7,Montreal,H2X2H7,45.5085411,-73.5718211,227,4.2,16638951,0
b697,Hwang-Kum,5908 Rue Sherbrooke W$*$ Montral$*$ QC H4A1X7,Montreal,H4A1X7,45.468761,-73.619012,416,4.2,16634773,0
b698,Restaurant O'Thym,1112 Boulevard De Maisonneuve E$*$ Montreal$*$ QC H2L1Z8,Montreal,H2L1Z8,45.518219,-73.558218,287,4.1,16636061,0
b699,Universel Djeuner & Grillades,3630 Rue St-Denis$*$ Montreal$*$ QC H2X3L7,Montreal,H2X3L7,45.517922,-73.56988,321,4.2,16633865,0
b700,La Perle Restaurant,4230 St-Jean Blvd$*$ Dollard-Des Ormeaux$*$ QC H9H3X4,Montreal,H9H3X4,45.480512,-73.842591,405,4.2,16637848,0
b701,Home Slice Pizza,1415 S Congress Avenue$*$ Austin$*$ TX 78704,Austin,78704,30.24931111,-97.74967222,2567,4.9,16912869,0
b702,Jack Allen's Kitchen,7720 Highway 71 W$*$ Austin$*$ TX 78735,Austin,78735,30.24376944,-97.88276667,1039,4.8,16915873,0
b703,Hopdoddy Burger Bar,1400 S Congress Avenue$*$ Austin$*$ TX 78704,Austin,78704,30.2497657,-97.7501222,1454,4.7,16916199,0
b704,Moonshine Patio Bar & Grill,303 Red River Street$*$ Austin$*$ TX 78701,Austin,78701,30.26419444,-97.73794444,2024,4.7,16913359,0
b705,Franklin Barbecue,900 East 11th Street$*$ Austin$*$ TX 78702,Austin,78702,30.27008611,-97.73146111,1113,4.6,16915865,0
b706,Gourdough's,1503 S 1st Street$*$ Austin$*$ TX 78704,Austin,78704,30.24945833,-97.75507222,879,4.6,16915822,0
b707,Titaya's Thai Cuisine,5501 N Lamar Boulevard$*$ Suite C101$*$ Austin$*$ TX 78751,Austin,78751,30.322949,-97.727844,756,4.6,16914453,0
b708,Torchy's Tacos,2801 Guadalupe Street$*$ TX 78705,Austin,78705,30.29365833,-97.74188889,898,4.5,16914522,0
b709,Uchi,801 S Lamar Boulevard$*$ Austin$*$ TX 78704,Austin,78704,30.25772778,-97.75982778,1654,4.5,16914265,0
b710,Magnolia Cafe,1920 S Congress Avenue$*$ Austin$*$ TX 78704,Austin,78704,30.24448889,-97.75178611,1375,4.5,16913223,0
b711,South Congress Caf,1600 S Congress Avenue$*$ Austin$*$ TX 78704,Austin,78704,30.24784167,-97.75049722,1175,4.5,16913937,0
b712,Hut's Hamburgers,807 W 6th Street$*$ Austin$*$ TX 78703,Austin,78703,30.27036944,-97.751075,1874,4.5,16912903,0
b713,Tarka Indian Kitchen,5207 Brodie Lane$*$ Austin$*$ TX 78745,Austin,78745,30.23105556,-97.81753611,462,4.5,16915772,0
b714,Rudy's Country Store and Bar-B-Q,11570 Research Boulevard$*$ Austin$*$ TX 78759,Austin,78759,30.41419722,-97.74678056,1350,4.4,16913756,0
b715,Eastside Cafe,2113 Manor Road$*$ TX 78722,Austin,78722,30.28416944,-97.71960556,981,4.4,16912570,0
b716,Chuy's,11680 N Research Boulevard$*$ Austin$*$ TX 78759,Austin,78759,30.41859167,-97.74753611,951,4.4,16912373,0
b717,Blue Dahlia Bistro,1115 E 11th Street$*$ Austin$*$ TX 78702,Austin,78702,30.268975,-97.72871389,617,4.4,16914445,0
b718,Amy's Ice Creams,3500 Guadalupe Street$*$ Austin$*$ TX 78705,Austin,78705,30.30134167,-97.73931944,673,4.4,16911952,0
b719,Noble Sandwich Co.,12233 Ranch Road 620 N$*$ Suite 105$*$ Austin$*$ TX 78750,Austin,78750,30.46158333,-97.815225,504,4.4,16916174,0
b720,Evangeline Cafe,8106 Brodie Lane$*$ Austin$*$ TX 78745,Austin,78745,30.20202222,-97.83860833,695,4.4,16912649,0
b721,Little Deli & Pizzeria,7101 A Woodrow Avenue$*$ Austin$*$ TX 78757,Austin,78757,30.3427,-97.72561667,398,4.4,16913165,0
b722,Shady Grove,1624 Barton Springs Road$*$ Austin$*$ TX 78704,Austin,78704,30.26263611,-97.76206111,1106,4.3,16913852,0
b723,Fonda San Miguel,2330 W North Loop Boulevard$*$ Austin$*$ TX 78756,Austin,78756,30.3255041,-97.7434654,1209,4.3,16912691,0
b724,Chuy's,10520 N Lamar Boulevard$*$ Austin$*$ TX 78753,Austin,78753,30.37499167,-97.69049722,851,4.3,16912372,0
b725,Enoteca Vespaio,1610 S Congress Avenue$*$ Austin$*$ TX 78704,Austin,78704,30.24719722,-97.750725,1283,4.3,16914282,0
b726,Mandola's Italian Market,The Triangle Austin$*$ 4700 W Guadalupe Street$*$ Suite 12$*$ Austin$*$ TX 78751,Austin,78751,30.3155528,-97.7332374,1154,4.3,16913237,0
b727,Magnolia Cafe,2304 Lake Austin Boulevard$*$ Austin$*$ TX 78703,Austin,78703,30.27788611,-97.77168333,780,4.3,16913222,0
b728,P. Terry's,404 S Lamar Boulevard$*$ Austin$*$ TX 78704,Austin,78704,30.26146389,-97.75854444,746,4.3,16913494,0
b729,Hyde Park Bar & Grill,4206 Duval Street$*$ Austin$*$ TX 78751,Austin,78751,30.304208,-97.726725,1111,4.3,16912905,0
b730,The Old Pecan Street Cafe,504 B Trinity Street$*$ Austin$*$ TX 78701,Austin,78701,30.266625,-97.73963889,703,4.3,16913468,0
b731,Torchy's Tacos,2809 S 1st Street$*$ Austin$*$ TX 78704,Austin,78704,30.23683889,-97.76284722,565,4.3,16914497,0
b732,Mozart's Coffee Roasters,3825 Lake Austin Boulevard$*$ Suite B$*$ Austin$*$ TX 78703,Austin,78703,30.29553333,-97.78401944,367,4.3,16913365,0
b733,Jardin Corona,13233 Pond Springs Road$*$ Suite 301$*$ Austin$*$ TX 78729,Austin,78729,30.44633056,-97.77922778,682,4.3,16912953,0
b734,Tacodeli,12001 N Burnet Road$*$ Austin$*$ TX 78758,Austin,78758,30.40778056,-97.71343889,413,4.3,16914068,0
b735,Phara's,111 North Loop Boulevard E$*$ Austin$*$ TX 78751,Austin,78751,30.317423,-97.7219779,324,4.3,16914477,0
b736,Kerbey Lane Cafe,3003 S Lamar Boulevard$*$ Austin$*$ TX 78704,Austin,78704,30.24206111,-97.783875,916,4.2,16913031,0
b737,Hula Hut,3825 Lake Austin Boulevard$*$ Austin$*$ TX 78703,Austin,78703,30.29480833,-97.78415556,1607,4.2,16912890,0
b738,Trudy's,409 W 30th Street$*$ Austin$*$ TX 78705,Austin,78705,30.29573,-97.7410769,1221,4.2,16914252,0
b739,Eddie V's Prime Seafood,301 E 5th Street$*$ Austin$*$ TX 78701,Austin,78701,30.26623056,-97.7406,655,4.2,16912573,0
b740,Whole Foods Market,525 N Lamar Boulevard$*$ Austin$*$ TX 78703,Austin,78703,30.27043056,-97.75386111,650,4.2,16914342,0
b741,Bouldin Creek Cafe,1900 S 1st Street$*$ Austin$*$ TX 78704,Austin,78704,30.24653611,-97.75653889,393,4.2,16912149,0
b742,Mother's Cafe & Garden,4215 Duval Street$*$ Austin$*$ TX 78751,Austin,78751,30.30423611,-97.72608056,607,4.2,16913362,0
b743,Cafe Crpe,200 San Jacinto Boulevard$*$ Suite A$*$ TX 78701,Austin,78701,30.26370556,-97.74181389,369,4.2,16915586,0
b744,Roaring Fork - Intercontinental,701 Congress Avenue$*$ Austin$*$ TX 78701,Austin,78701,30.26904722,-97.7424,456,4.2,16913717,0
b745,Bartlett's,2408 W Anderson Lane$*$ Burnet Road$*$ Austin$*$ TX 78757,Austin,78757,30.356975,-97.73145278,887,4.2,16912886,0
b746,Rudy's Country Store and Bar-B-Q,2451 S Capital Of Texas Highway$*$ Austin$*$ TX 78746,Austin,78746,30.26353889,-97.81570556,603,4.2,16913757,0
b747,Maria's Taco Xpress,2529 S Lamar Boulevard$*$ Austin$*$ TX 78704,Austin,78704,30.24597778,-97.77836667,416,4.2,16914066,0
b748,Musashino Sushi Dokoro,3407 Greystone Drive$*$ Austin$*$ TX 78731,Austin,78731,30.356565,-97.747475,536,4.2,16913418,0
b749,Cafe Java,11900 Metric Boulevard$*$ Suite K$*$ TX 78758,Austin,78758,30.40005278,-97.70410278,440,4.2,16912211,0
b750,Torchy's Tacos,4211 Old Spicewood Springs Road$*$ Austin$*$ TX 78731,Austin,78731,30.37085833,-97.75630278,339,4.2,16915893,0
b751,Tacodeli,1500 Spyglass Drive$*$ Austin$*$ TX 78746,Austin,78746,30.2584411,-97.7876398,399,4.2,16914069,0
b752,Korea House,2700 W Anderson Lane$*$ Suite 501$*$ Austin$*$ TX 78757,Austin,78757,30.35941111,-97.73416944,443,4.2,16913056,0
b753,Midori Sushi,13435 US 183 N$*$ Suite 301$*$ Austin$*$ TX 78750,Austin,78750,30.44872778,-97.78775,401,4.2,16913331,0
b754,Taste of Ethiopia,1100 Grand Avenue Pkwy$*$ Suite 100$*$ Pflugerville$*$ TX 78660,Austin,78660,30.45813889,-97.65089444,316,4.2,16915399,0
b755,Twin Lion Chinese Restaurant,North Hills Town Center 4815 W Braker Lane$*$ Suite 510$*$ Austin$*$ TX 78759,Austin,78759,30.40013611,-97.74788611,386,4.2,16914260,0
b756,Texas Honey Ham Company,3736 Bee Cave Road$*$ Suite 6A$*$ Austin$*$ TX 78746,Austin,78746,30.28077778,-97.80725,312,4.2,16914147,0
b757,Clay Pit,1601 The Bertram Building$*$ Guadalupe Street$*$ Austin$*$ TX 78701,Austin,78701,30.27889167,-97.74251667,1427,4.1,16912394,0
b758,Chuy's,1728 Barton Springs Road$*$ Austin$*$ TX 78704,Austin,78704,30.26382,-97.7632,719,4.1,16912374,0
b759,Mighty Fine Burgers,10515 Mo-Pac Expressway N$*$ Suite B 205$*$ Austin$*$ TX 78759,Austin,78759,30.38976944,-97.73294167,1100,4.1,16914425,0
b760,Fogo de Cho,309 E 3rd Street$*$ Austin$*$ TX 78701,Austin,78701,30.26435556,-97.74065278,773,4.1,16914415,0
b761,Easy Tiger,709 E 6th Street$*$ Austin$*$ TX 78701,Austin,78701,30.26599722,-97.73561944,318,4.1,16916835,0
b762,Uchiko,4200 N Lamar Boulevard$*$ Suite 140$*$ TX 78756,Austin,78756,30.31083333,-97.73981389,524,4.1,16916068,0
b763,Perla's Seafood and Oyster Bar,1400 S Congress Avenue$*$ Austin$*$ TX 78704,Austin,78704,30.249984,-97.750047,508,4.1,16915552,0
b764,Buenos Aires Cafe,1201 E 6th Street$*$ Austin$*$ TX 78702,Austin,78702,30.26437222,-97.730475,398,4.1,16915606,0
b765,Banger's Sausage House & Beer Garden,79 & 81 Rainey Street$*$ Austin$*$ TX 78701,Austin,78701,30.259219,-97.7382949,352,4.1,16917038,0
b766,888 Pan Asian Restaurant,2400 E Oltorf Street$*$ Suite 1A$*$ Austin$*$ TX 78741,Austin,78741,30.22950278,-97.73003333,427,4.1,16911912,0
b767,Kerbey Lane Cafe,3704 Kerbey Lane$*$ Austin$*$ TX 78731,Austin,78731,30.30787778,-97.75045833,457,4.1,16913032,0
b768,Piranha Killer Sushi,207 San Jacinto Boulevard$*$ Suite 202$*$ Austin$*$ TX 78701,Austin,78701,30.26414722,-97.741775,406,4.1,16915723,0
b769,Frank & Angie's Pizzeria,508 W Avenue$*$ Austin$*$ TX 78701,Austin,78701,30.270025,-97.75093056,543,4.1,16912705,0
b770,Galaxy Cafe,9911 Brodie Lane$*$ Suite 750$*$ Austin$*$ TX 78748,Austin,78748,30.183175,-97.848,779,4.1,16912734,0
b771,Quality Seafood Market,5621 Airport Boulevard$*$ Austin$*$ TX 78751,Austin,78751,30.31832778,-97.7126,421,4.1,16913644,0
b772,The Grove Wine Bar & Kitchen,6317 Bee Caves Road$*$ Austin$*$ TX 78746,Austin,78746,30.296271,-97.833829,626,4.1,16914424,0
b773,G'Raj Mahal Cafe & Lounge,73 Rainey Street$*$ Austin$*$ TX 78701,Austin,78701,30.258475,-97.73883056,326,4.1,16915930,0
b774,Tomodachi Sushi,4101 W Parmer Lane$*$ Suite E$*$ Austin$*$ TX 78727,Austin,78727,30.42558889,-97.71684167,539,4.1,16914228,0
b775,Sap's Fine Thai Cuisine,4514 West Gate Boulevard$*$ Austin$*$ TX 78745,Austin,78745,30.23139444,-97.80071389,489,4.1,16914542,0
b776,East Side Pies,1401 B Rosewood Avenue$*$ TX 78702,Austin,78702,30.26881667,-97.72425833,367,4.1,16912567,0
b777,The Mighty Cone,1720 Barton Springs Road$*$ Austin$*$ TX 78704,Austin,78704,30.26328889,-97.76286389,350,4.1,16915443,0
b778,Asia Cafe,8650 Spicewood Springs Road$*$ Austin$*$ TX 78759,Austin,78759,30.43256944,-97.77120278,257,4.1,16916080,0
b779,Austin Pizza Garden,6266 W US Highway 290$*$ Austin$*$ TX 78735,Austin,78735,30.23575556,-97.85891667,402,4.1,16912012,0
b780,Mighty Fine Burgers,5601 Brodie Lane$*$ Suite 1300$*$ Austin$*$ TX 78745,Austin,78745,30.22725556,-97.82102222,389,4.1,16915455,0
b781,Cabo Bob's Burritos,500 E Ben White Boulevard$*$ Suite D 100$*$ Austin$*$ TX 78704,Austin,78704,30.22096111,-97.75694167,339,4.1,16915435,0
b782,Rudy's Country Store and Bar-B-Q,7709 FM 620 N$*$ Austin$*$ TX 78726,Austin,78726,30.4539081,-97.8276552,312,4.1,16913758,0
b783,Muangthai Thai Cuisine,13945 US Hwy 183$*$ Suite C 80$*$ Austin$*$ TX 78717,Austin,78717,30.47206944,-97.79710278,287,4.1,16915545,0
b784,Opie's Barbecue,9504 State Hwy 71 E$*$ Austin$*$ TX 78669,Austin,78669,30.462066,-98.160095,224,4.1,16915415,0
b785,Yanagi Restaurant & Sushi Bar,4404 W William Cannon Drive$*$ Suite B$*$ Austin$*$ TX 78749,Austin,78749,30.22360278,-97.83971389,269,4.1,16915626,0
b786,Mangieri's Pizza Cafe,5900 W Slaughter Lane$*$ Suite 460$*$ Austin$*$ TX 78749,Austin,78749,30.20108333,-97.87898333,362,4.1,16913243,0
b787,Java Noodles,2400 E Oltorf Street$*$ Suite 14$*$ Austin$*$ TX 78741,Austin,78741,30.22927778,-97.72946944,297,4.1,16912967,0
b788,Frank,407 Colorado Street$*$ Austin$*$ TX 78701,Austin,78701,30.266906,-97.744299,500,4,16915648,0
b789,Lamberts Downtown Barbecue,401 W 2nd Street$*$ Austin$*$ TX 78701,Austin,78701,30.26526944,-97.74775833,808,4,16913120,0
b790,Juan In A Million,2300 E Cesar Chavez Street$*$ Austin$*$ TX 78702,Austin,78702,30.25531389,-97.71903333,798,4,16913004,0
b791,La Barbecue,1906 E Cesar Chavez Street$*$ Austin$*$ TX 78702,Austin,78702,30.257141,-97.723919,266,4,16917140,0
b792,Z' Tejas Southwestern Grill,9400 A Arboretum Boulevard$*$ Austin$*$ TX 78759,Austin,78759,30.38956667,-97.75280833,771,4,17952225,0
b793,Matt's El Rancho,2613 S Lamar Boulevard$*$ Austin$*$ TX 78704,Austin,78704,30.24548611,-97.77940278,773,4,16913279,0
b794,North By Northwest Restaurant and Brewery,10010 N Capital of Texas Hwy$*$ Austin$*$ TX 78759,Austin,78759,30.391185,-97.738341,643,4,17952229,0
b795,North Italia,11506 Century Oaks Terrace$*$ Suite 124$*$ Austin$*$ TX 78758,Austin,78758,30.402125,-97.7257,596,4,16914407,0
b796,Eddie V's Prime Seafood,9400 B Arboretum Boulevard$*$ Austin$*$ TX 78759,Austin,78759,30.389393,-97.752657,621,4,16912574,0
b797,Curra's Grill,614 E Oltorf Street$*$ TX 78704,Austin,78704,30.23689722,-97.74931389,581,4,16912454,0
b798,Max's Wine Dive,207 San Jacinto Boulevard$*$ Suite 200$*$ TX 78701,Austin,78701,30.26442778,-97.74146944,395,4,16915575,0
b799,Z' Tejas Southwestern Grill,1110 W 6th Street$*$ Austin$*$ TX 78703,Austin,78703,30.2724566,-97.7557666,472,4,16914382,0
